[{"id": "IDFM:C01774", "route_long_name": "T7", "plans": "[{\"link\": \"https://www.ratp.fr/sites/default/files/lines-assets/plan-de-ligne/tram/plan-de-ligne_tram_ligne-t7.pdf\", \"label\": \"Plan Tramway T7\"}]", "schedules": "[{\"routeId\": \"route:IDFM:C01774-outbound\", \"from\": \"Porte de l'Essonne\", \"to\": \"Villejuif - Louis Aragon\", \"first\": \"05:30\", \"last\": \"00:30\"}, {\"routeId\": \"route:IDFM:C01774-outbound\", \"from\": \"Porte de l'Essonne\", \"to\": \"Villejuif - Louis Aragon\", \"first\": \"06:20\", \"last\": \"07:15\"}, {\"routeId\": \"route:IDFM:C01774-inbound\", \"from\": \"Villejuif - Louis Aragon\", \"to\": \"Porte de l'Essonne\", \"first\": \"05:30\", \"last\": \"00:30\"}]", "stop_id": "IDFM:35939", "stop_name": "Saarinen", "stop_lon": "2.3543356455001314", "stop_lat": "48.75021995135073", "operatorname": "RATP", "pointgeo": {"lon": 2.3543356455001314, "lat": 48.75021995135073}, "nom_commune": "Rungis", "code_insee": "94065"},{"id": "IDFM:C01774", "route_long_name": "T7", "plans": "[{\"link\": \"https://www.ratp.fr/sites/default/files/lines-assets/plan-de-ligne/tram/plan-de-ligne_tram_ligne-t7.pdf\", \"label\": \"Plan Tramway T7\"}]", "schedules": "[{\"routeId\": \"route:IDFM:C01774-outbound\", \"from\": \"Porte de l'Essonne\", \"to\": \"Villejuif - Louis Aragon\", \"first\": \"05:30\", \"last\": \"00:30\"}, {\"routeId\": \"route:IDFM:C01774-outbound\", \"from\": \"Porte de l'Essonne\", \"to\": \"Villejuif - Louis Aragon\", \"first\": \"06:20\", \"last\": \"07:15\"}, {\"routeId\": \"route:IDFM:C01774-inbound\", \"from\": \"Villejuif - Louis Aragon\", \"to\": \"Porte de l'Essonne\", \"first\": \"05:30\", \"last\": \"00:30\"}]", "stop_id": "IDFM:35938", "stop_name": "Robert Schuman (Parc Silic Centre)", "stop_lon": "2.3527755868234195", "stop_lat": "48.746595768446504", "operatorname": "RATP", "pointgeo": {"lon": 2.3527755868234195, "lat": 48.746595768446504}, "nom_commune": "Rungis", "code_insee": "94065"},{"id": "IDFM:C01774", "route_long_name": "T7", "plans": "[{\"link\": \"https://www.ratp.fr/sites/default/files/lines-assets/plan-de-ligne/tram/plan-de-ligne_tram_ligne-t7.pdf\", \"label\": \"Plan Tramway T7\"}]", "schedules": "[{\"routeId\": \"route:IDFM:C01774-outbound\", \"from\": \"Porte de l'Essonne\", \"to\": \"Villejuif - Louis Aragon\", \"first\": \"05:30\", \"last\": \"00:30\"}, {\"routeId\": \"route:IDFM:C01774-outbound\", \"from\": \"Porte de l'Essonne\", \"to\": \"Villejuif - Louis Aragon\", \"first\": \"06:20\", \"last\": \"07:15\"}, {\"routeId\": \"route:IDFM:C01774-inbound\", \"from\": \"Villejuif - Louis Aragon\", \"to\": \"Porte de l'Essonne\", \"first\": \"05:30\", \"last\": \"00:30\"}]", "stop_id": "IDFM:29894", "stop_name": "A\u00e9roport d'Orly", "stop_lon": "2.3682008466272535", "stop_lat": "48.72955298083611", "operatorname": "RATP", "pointgeo": {"lon": 2.3682008466272535, "lat": 48.72955298083611}, "nom_commune": "Paray-Vieille-Poste", "code_insee": "91479"},{"id": "IDFM:C01774", "route_long_name": "T7", "plans": "[{\"link\": \"https://www.ratp.fr/sites/default/files/lines-assets/plan-de-ligne/tram/plan-de-ligne_tram_ligne-t7.pdf\", \"label\": \"Plan Tramway T7\"}]", "schedules": "[{\"routeId\": \"route:IDFM:C01774-outbound\", \"from\": \"Porte de l'Essonne\", \"to\": \"Villejuif - Louis Aragon\", \"first\": \"05:30\", \"last\": \"00:30\"}, {\"routeId\": \"route:IDFM:C01774-outbound\", \"from\": \"Porte de l'Essonne\", \"to\": \"Villejuif - Louis Aragon\", \"first\": \"06:20\", \"last\": \"07:15\"}, {\"routeId\": \"route:IDFM:C01774-inbound\", \"from\": \"Villejuif - Louis Aragon\", \"to\": \"Porte de l'Essonne\", \"first\": \"05:30\", \"last\": \"00:30\"}]", "stop_id": "IDFM:460558", "stop_name": "Coeur d'Orly", "stop_lon": "2.3715660843582294", "stop_lat": "48.73349234197916", "operatorname": "RATP", "pointgeo": {"lon": 2.3715660843582294, "lat": 48.73349234197916}, "nom_commune": "Orly", "code_insee": "94054"},{"id": "IDFM:C01774", "route_long_name": "T7", "plans": "[{\"link\": \"https://www.ratp.fr/sites/default/files/lines-assets/plan-de-ligne/tram/plan-de-ligne_tram_ligne-t7.pdf\", \"label\": \"Plan Tramway T7\"}]", "schedules": "[{\"routeId\": \"route:IDFM:C01774-outbound\", \"from\": \"Porte de l'Essonne\", \"to\": \"Villejuif - Louis Aragon\", \"first\": \"05:30\", \"last\": \"00:30\"}, {\"routeId\": \"route:IDFM:C01774-outbound\", \"from\": \"Porte de l'Essonne\", \"to\": \"Villejuif - Louis Aragon\", \"first\": \"06:20\", \"last\": \"07:15\"}, {\"routeId\": \"route:IDFM:C01774-inbound\", \"from\": \"Villejuif - Louis Aragon\", \"to\": \"Porte de l'Essonne\", \"first\": \"05:30\", \"last\": \"00:30\"}]", "stop_id": "IDFM:29900", "stop_name": "La Fraternelle", "stop_lon": "2.352849598393902", "stop_lat": "48.74172120277371", "operatorname": "RATP", "pointgeo": {"lon": 2.352849598393902, "lat": 48.74172120277371}, "nom_commune": "Rungis", "code_insee": "94065"},{"id": "IDFM:C01774", "route_long_name": "T7", "plans": "[{\"link\": \"https://www.ratp.fr/sites/default/files/lines-assets/plan-de-ligne/tram/plan-de-ligne_tram_ligne-t7.pdf\", \"label\": \"Plan Tramway T7\"}]", "schedules": "[{\"routeId\": \"route:IDFM:C01774-outbound\", \"from\": \"Porte de l'Essonne\", \"to\": \"Villejuif - Louis Aragon\", \"first\": \"05:30\", \"last\": \"00:30\"}, {\"routeId\": \"route:IDFM:C01774-outbound\", \"from\": \"Porte de l'Essonne\", \"to\": \"Villejuif - Louis Aragon\", \"first\": \"06:20\", \"last\": \"07:15\"}, {\"routeId\": \"route:IDFM:C01774-inbound\", \"from\": \"Villejuif - Louis Aragon\", \"to\": \"Porte de l'Essonne\", \"first\": \"05:30\", \"last\": \"00:30\"}]", "stop_id": "IDFM:35943", "stop_name": "Robert Schuman (Parc Silic Centre)", "stop_lon": "2.352883938486683", "stop_lat": "48.746632333280374", "operatorname": "RATP", "pointgeo": {"lon": 2.352883938486683, "lat": 48.746632333280374}, "nom_commune": "Rungis", "code_insee": "94065"},{"id": "IDFM:C01774", "route_long_name": "T7", "plans": "[{\"link\": \"https://www.ratp.fr/sites/default/files/lines-assets/plan-de-ligne/tram/plan-de-ligne_tram_ligne-t7.pdf\", \"label\": \"Plan Tramway T7\"}]", "schedules": "[{\"routeId\": \"route:IDFM:C01774-outbound\", \"from\": \"Porte de l'Essonne\", \"to\": \"Villejuif - Louis Aragon\", \"first\": \"05:30\", \"last\": \"00:30\"}, {\"routeId\": \"route:IDFM:C01774-outbound\", \"from\": \"Porte de l'Essonne\", \"to\": \"Villejuif - Louis Aragon\", \"first\": \"06:20\", \"last\": \"07:15\"}, {\"routeId\": \"route:IDFM:C01774-inbound\", \"from\": \"Villejuif - Louis Aragon\", \"to\": \"Porte de l'Essonne\", \"first\": \"05:30\", \"last\": \"00:30\"}]", "stop_id": "IDFM:29901", "stop_name": "Porte de Rungis", "stop_lon": "2.3553000637375106", "stop_lat": "48.752527714710325", "operatorname": "RATP", "pointgeo": {"lon": 2.3553000637375106, "lat": 48.752527714710325}, "nom_commune": "Rungis", "code_insee": "94065"},{"id": "IDFM:C01774", "route_long_name": "T7", "plans": "[{\"link\": \"https://www.ratp.fr/sites/default/files/lines-assets/plan-de-ligne/tram/plan-de-ligne_tram_ligne-t7.pdf\", \"label\": \"Plan Tramway T7\"}]", "schedules": "[{\"routeId\": \"route:IDFM:C01774-outbound\", \"from\": \"Porte de l'Essonne\", \"to\": \"Villejuif - Louis Aragon\", \"first\": \"05:30\", \"last\": \"00:30\"}, {\"routeId\": \"route:IDFM:C01774-outbound\", \"from\": \"Porte de l'Essonne\", \"to\": \"Villejuif - Louis Aragon\", \"first\": \"06:20\", \"last\": \"07:15\"}, {\"routeId\": \"route:IDFM:C01774-inbound\", \"from\": \"Villejuif - Louis Aragon\", \"to\": \"Porte de l'Essonne\", \"first\": \"05:30\", \"last\": \"00:30\"}]", "stop_id": "IDFM:29902", "stop_name": "Bretagne", "stop_lon": "2.3681004100826413", "stop_lat": "48.768201183107806", "operatorname": "RATP", "pointgeo": {"lon": 2.3681004100826413, "lat": 48.768201183107806}, "nom_commune": "Thiais", "code_insee": "94073"},{"id": "IDFM:C01774", "route_long_name": "T7", "plans": "[{\"link\": \"https://www.ratp.fr/sites/default/files/lines-assets/plan-de-ligne/tram/plan-de-ligne_tram_ligne-t7.pdf\", \"label\": \"Plan Tramway T7\"}]", "schedules": "[{\"routeId\": \"route:IDFM:C01774-outbound\", \"from\": \"Porte de l'Essonne\", \"to\": \"Villejuif - Louis Aragon\", \"first\": \"05:30\", \"last\": \"00:30\"}, {\"routeId\": \"route:IDFM:C01774-outbound\", \"from\": \"Porte de l'Essonne\", \"to\": \"Villejuif - Louis Aragon\", \"first\": \"06:20\", \"last\": \"07:15\"}, {\"routeId\": \"route:IDFM:C01774-inbound\", \"from\": \"Villejuif - Louis Aragon\", \"to\": \"Porte de l'Essonne\", \"first\": \"05:30\", \"last\": \"00:30\"}]", "stop_id": "IDFM:35946", "stop_name": "Villejuif - Louis Aragon", "stop_lon": "2.366875621605191", "stop_lat": "48.7872892311756", "operatorname": "RATP", "pointgeo": {"lon": 2.366875621605191, "lat": 48.7872892311756}, "nom_commune": "Villejuif", "code_insee": "94076"},{"id": "IDFM:C01774", "route_long_name": "T7", "plans": "[{\"link\": \"https://www.ratp.fr/sites/default/files/lines-assets/plan-de-ligne/tram/plan-de-ligne_tram_ligne-t7.pdf\", \"label\": \"Plan Tramway T7\"}]", "schedules": "[{\"routeId\": \"route:IDFM:C01774-outbound\", \"from\": \"Porte de l'Essonne\", \"to\": \"Villejuif - Louis Aragon\", \"first\": \"05:30\", \"last\": \"00:30\"}, {\"routeId\": \"route:IDFM:C01774-outbound\", \"from\": \"Porte de l'Essonne\", \"to\": \"Villejuif - Louis Aragon\", \"first\": \"06:20\", \"last\": \"07:15\"}, {\"routeId\": \"route:IDFM:C01774-inbound\", \"from\": \"Villejuif - Louis Aragon\", \"to\": \"Porte de l'Essonne\", \"first\": \"05:30\", \"last\": \"00:30\"}]", "stop_id": "IDFM:35942", "stop_name": "La Fraternelle", "stop_lon": "2.352727658537549", "stop_lat": "48.741684564028205", "operatorname": "RATP", "pointgeo": {"lon": 2.352727658537549, "lat": 48.741684564028205}, "nom_commune": "Rungis", "code_insee": "94065"},{"id": "IDFM:C01774", "route_long_name": "T7", "plans": "[{\"link\": \"https://www.ratp.fr/sites/default/files/lines-assets/plan-de-ligne/tram/plan-de-ligne_tram_ligne-t7.pdf\", \"label\": \"Plan Tramway T7\"}]", "schedules": "[{\"routeId\": \"route:IDFM:C01774-outbound\", \"from\": \"Porte de l'Essonne\", \"to\": \"Villejuif - Louis Aragon\", \"first\": \"05:30\", \"last\": \"00:30\"}, {\"routeId\": \"route:IDFM:C01774-outbound\", \"from\": \"Porte de l'Essonne\", \"to\": \"Villejuif - Louis Aragon\", \"first\": \"06:20\", \"last\": \"07:15\"}, {\"routeId\": \"route:IDFM:C01774-inbound\", \"from\": \"Villejuif - Louis Aragon\", \"to\": \"Porte de l'Essonne\", \"first\": \"05:30\", \"last\": \"00:30\"}]", "stop_id": "IDFM:29899", "stop_name": "Caroline Aigle (Orlyfret)", "stop_lon": "2.3698303703953347", "stop_lat": "48.73873595049087", "operatorname": "RATP", "pointgeo": {"lon": 2.3698303703953347, "lat": 48.73873595049087}, "nom_commune": "Orly", "code_insee": "94054"},{"id": "IDFM:C01774", "route_long_name": "T7", "plans": "[{\"link\": \"https://www.ratp.fr/sites/default/files/lines-assets/plan-de-ligne/tram/plan-de-ligne_tram_ligne-t7.pdf\", \"label\": \"Plan Tramway T7\"}]", "schedules": "[{\"routeId\": \"route:IDFM:C01774-outbound\", \"from\": \"Porte de l'Essonne\", \"to\": \"Villejuif - Louis Aragon\", \"first\": \"05:30\", \"last\": \"00:30\"}, {\"routeId\": \"route:IDFM:C01774-outbound\", \"from\": \"Porte de l'Essonne\", \"to\": \"Villejuif - Louis Aragon\", \"first\": \"06:20\", \"last\": \"07:15\"}, {\"routeId\": \"route:IDFM:C01774-inbound\", \"from\": \"Villejuif - Louis Aragon\", \"to\": \"Porte de l'Essonne\", \"first\": \"05:30\", \"last\": \"00:30\"}]", "stop_id": "IDFM:35927", "stop_name": "A\u00e9roport d'Orly", "stop_lon": "2.368322986536", "stop_lat": "48.729571616306195", "operatorname": "RATP", "pointgeo": {"lon": 2.368322986536, "lat": 48.729571616306195}, "nom_commune": "Paray-Vieille-Poste", "code_insee": "91479"},{"id": "IDFM:C01774", "route_long_name": "T7", "plans": "[{\"link\": \"https://www.ratp.fr/sites/default/files/lines-assets/plan-de-ligne/tram/plan-de-ligne_tram_ligne-t7.pdf\", \"label\": \"Plan Tramway T7\"}]", "schedules": "[{\"routeId\": \"route:IDFM:C01774-outbound\", \"from\": \"Porte de l'Essonne\", \"to\": \"Villejuif - Louis Aragon\", \"first\": \"05:30\", \"last\": \"00:30\"}, {\"routeId\": \"route:IDFM:C01774-outbound\", \"from\": \"Porte de l'Essonne\", \"to\": \"Villejuif - Louis Aragon\", \"first\": \"06:20\", \"last\": \"07:15\"}, {\"routeId\": \"route:IDFM:C01774-inbound\", \"from\": \"Villejuif - Louis Aragon\", \"to\": \"Porte de l'Essonne\", \"first\": \"05:30\", \"last\": \"00:30\"}]", "stop_id": "IDFM:35935", "stop_name": "Saarinen", "stop_lon": "2.354444784134944", "stop_lat": "48.75019355837689", "operatorname": "RATP", "pointgeo": {"lon": 2.354444784134944, "lat": 48.75019355837689}, "nom_commune": "Rungis", "code_insee": "94065"},{"id": "IDFM:C01774", "route_long_name": "T7", "plans": "[{\"link\": \"https://www.ratp.fr/sites/default/files/lines-assets/plan-de-ligne/tram/plan-de-ligne_tram_ligne-t7.pdf\", \"label\": \"Plan Tramway T7\"}]", "schedules": "[{\"routeId\": \"route:IDFM:C01774-outbound\", \"from\": \"Porte de l'Essonne\", \"to\": \"Villejuif - Louis Aragon\", \"first\": \"05:30\", \"last\": \"00:30\"}, {\"routeId\": \"route:IDFM:C01774-outbound\", \"from\": \"Porte de l'Essonne\", \"to\": \"Villejuif - Louis Aragon\", \"first\": \"06:20\", \"last\": \"07:15\"}, {\"routeId\": \"route:IDFM:C01774-inbound\", \"from\": \"Villejuif - Louis Aragon\", \"to\": \"Porte de l'Essonne\", \"first\": \"05:30\", \"last\": \"00:30\"}]", "stop_id": "IDFM:35941", "stop_name": "La Belle Epine", "stop_lon": "2.3684301777519883", "stop_lat": "48.7566902914413", "operatorname": "RATP", "pointgeo": {"lon": 2.3684301777519883, "lat": 48.7566902914413}, "nom_commune": "Rungis", "code_insee": "94065"},{"id": "IDFM:C01774", "route_long_name": "T7", "plans": "[{\"link\": \"https://www.ratp.fr/sites/default/files/lines-assets/plan-de-ligne/tram/plan-de-ligne_tram_ligne-t7.pdf\", \"label\": \"Plan Tramway T7\"}]", "schedules": "[{\"routeId\": \"route:IDFM:C01774-outbound\", \"from\": \"Porte de l'Essonne\", \"to\": \"Villejuif - Louis Aragon\", \"first\": \"05:30\", \"last\": \"00:30\"}, {\"routeId\": \"route:IDFM:C01774-outbound\", \"from\": \"Porte de l'Essonne\", \"to\": \"Villejuif - Louis Aragon\", \"first\": \"06:20\", \"last\": \"07:15\"}, {\"routeId\": \"route:IDFM:C01774-inbound\", \"from\": \"Villejuif - Louis Aragon\", \"to\": \"Porte de l'Essonne\", \"first\": \"05:30\", \"last\": \"00:30\"}]", "stop_id": "IDFM:29904", "stop_name": "Moulin Vert", "stop_lon": "2.3678767059851387", "stop_lat": "48.772067499844496", "operatorname": "RATP", "pointgeo": {"lon": 2.3678767059851387, "lat": 48.772067499844496}, "nom_commune": "Vitry-sur-Seine", "code_insee": "94081"},{"id": "IDFM:C01774", "route_long_name": "T7", "plans": "[{\"link\": \"https://www.ratp.fr/sites/default/files/lines-assets/plan-de-ligne/tram/plan-de-ligne_tram_ligne-t7.pdf\", \"label\": \"Plan Tramway T7\"}]", "schedules": "[{\"routeId\": \"route:IDFM:C01774-outbound\", \"from\": \"Porte de l'Essonne\", \"to\": \"Villejuif - Louis Aragon\", \"first\": \"05:30\", \"last\": \"00:30\"}, {\"routeId\": \"route:IDFM:C01774-outbound\", \"from\": \"Porte de l'Essonne\", \"to\": \"Villejuif - Louis Aragon\", \"first\": \"06:20\", \"last\": \"07:15\"}, {\"routeId\": \"route:IDFM:C01774-inbound\", \"from\": \"Villejuif - Louis Aragon\", \"to\": \"Porte de l'Essonne\", \"first\": \"05:30\", \"last\": \"00:30\"}]", "stop_id": "IDFM:29895", "stop_name": "Domaine Ch\u00e9rioux", "stop_lon": "2.367466444252223", "stop_lat": "48.778972831519006", "operatorname": "RATP", "pointgeo": {"lon": 2.367466444252223, "lat": 48.778972831519006}, "nom_commune": "Vitry-sur-Seine", "code_insee": "94081"},{"id": "IDFM:C01774", "route_long_name": "T7", "plans": "[{\"link\": \"https://www.ratp.fr/sites/default/files/lines-assets/plan-de-ligne/tram/plan-de-ligne_tram_ligne-t7.pdf\", \"label\": \"Plan Tramway T7\"}]", "schedules": "[{\"routeId\": \"route:IDFM:C01774-outbound\", \"from\": \"Porte de l'Essonne\", \"to\": \"Villejuif - Louis Aragon\", \"first\": \"05:30\", \"last\": \"00:30\"}, {\"routeId\": \"route:IDFM:C01774-outbound\", \"from\": \"Porte de l'Essonne\", \"to\": \"Villejuif - Louis Aragon\", \"first\": \"06:20\", \"last\": \"07:15\"}, {\"routeId\": \"route:IDFM:C01774-inbound\", \"from\": \"Villejuif - Louis Aragon\", \"to\": \"Porte de l'Essonne\", \"first\": \"05:30\", \"last\": \"00:30\"}]", "stop_id": "IDFM:29903", "stop_name": "Villejuif - Louis Aragon", "stop_lon": "2.367011615613775", "stop_lat": "48.78729894568862", "operatorname": "RATP", "pointgeo": {"lon": 2.367011615613775, "lat": 48.78729894568862}, "nom_commune": "Villejuif", "code_insee": "94076"},{"id": "IDFM:C01774", "route_long_name": "T7", "plans": "[{\"link\": \"https://www.ratp.fr/sites/default/files/lines-assets/plan-de-ligne/tram/plan-de-ligne_tram_ligne-t7.pdf\", \"label\": \"Plan Tramway T7\"}]", "schedules": "[{\"routeId\": \"route:IDFM:C01774-outbound\", \"from\": \"Porte de l'Essonne\", \"to\": \"Villejuif - Louis Aragon\", \"first\": \"05:30\", \"last\": \"00:30\"}, {\"routeId\": \"route:IDFM:C01774-outbound\", \"from\": \"Porte de l'Essonne\", \"to\": \"Villejuif - Louis Aragon\", \"first\": \"06:20\", \"last\": \"07:15\"}, {\"routeId\": \"route:IDFM:C01774-inbound\", \"from\": \"Villejuif - Louis Aragon\", \"to\": \"Porte de l'Essonne\", \"first\": \"05:30\", \"last\": \"00:30\"}]", "stop_id": "IDFM:29896", "stop_name": "Domaine Ch\u00e9rioux", "stop_lon": "2.3673446251578003", "stop_lat": "48.778918221808496", "operatorname": "RATP", "pointgeo": {"lon": 2.3673446251578003, "lat": 48.778918221808496}, "nom_commune": "Chevilly-Larue", "code_insee": "94021"},{"id": "IDFM:C01774", "route_long_name": "T7", "plans": "[{\"link\": \"https://www.ratp.fr/sites/default/files/lines-assets/plan-de-ligne/tram/plan-de-ligne_tram_ligne-t7.pdf\", \"label\": \"Plan Tramway T7\"}]", "schedules": "[{\"routeId\": \"route:IDFM:C01774-outbound\", \"from\": \"Porte de l'Essonne\", \"to\": \"Villejuif - Louis Aragon\", \"first\": \"05:30\", \"last\": \"00:30\"}, {\"routeId\": \"route:IDFM:C01774-outbound\", \"from\": \"Porte de l'Essonne\", \"to\": \"Villejuif - Louis Aragon\", \"first\": \"06:20\", \"last\": \"07:15\"}, {\"routeId\": \"route:IDFM:C01774-inbound\", \"from\": \"Villejuif - Louis Aragon\", \"to\": \"Porte de l'Essonne\", \"first\": \"05:30\", \"last\": \"00:30\"}]", "stop_id": "IDFM:413057", "stop_name": "Bretagne", "stop_lon": "2.3679643567261746", "stop_lat": "48.76820046329727", "operatorname": "RATP", "pointgeo": {"lon": 2.3679643567261746, "lat": 48.76820046329727}, "nom_commune": "Chevilly-Larue", "code_insee": "94021"},{"id": "IDFM:C01774", "route_long_name": "T7", "plans": "[{\"link\": \"https://www.ratp.fr/sites/default/files/lines-assets/plan-de-ligne/tram/plan-de-ligne_tram_ligne-t7.pdf\", \"label\": \"Plan Tramway T7\"}]", "schedules": "[{\"routeId\": \"route:IDFM:C01774-outbound\", \"from\": \"Porte de l'Essonne\", \"to\": \"Villejuif - Louis Aragon\", \"first\": \"05:30\", \"last\": \"00:30\"}, {\"routeId\": \"route:IDFM:C01774-outbound\", \"from\": \"Porte de l'Essonne\", \"to\": \"Villejuif - Louis Aragon\", \"first\": \"06:20\", \"last\": \"07:15\"}, {\"routeId\": \"route:IDFM:C01774-inbound\", \"from\": \"Villejuif - Louis Aragon\", \"to\": \"Porte de l'Essonne\", \"first\": \"05:30\", \"last\": \"00:30\"}]", "stop_id": "IDFM:35937", "stop_name": "La Belle Epine", "stop_lon": "2.368321359060268", "stop_lat": "48.75668971589999", "operatorname": "RATP", "pointgeo": {"lon": 2.368321359060268, "lat": 48.75668971589999}, "nom_commune": "Rungis", "code_insee": "94065"},{"id": "IDFM:C01774", "route_long_name": "T7", "plans": "[{\"link\": \"https://www.ratp.fr/sites/default/files/lines-assets/plan-de-ligne/tram/plan-de-ligne_tram_ligne-t7.pdf\", \"label\": \"Plan Tramway T7\"}]", "schedules": "[{\"routeId\": \"route:IDFM:C01774-outbound\", \"from\": \"Porte de l'Essonne\", \"to\": \"Villejuif - Louis Aragon\", \"first\": \"05:30\", \"last\": \"00:30\"}, {\"routeId\": \"route:IDFM:C01774-outbound\", \"from\": \"Porte de l'Essonne\", \"to\": \"Villejuif - Louis Aragon\", \"first\": \"06:20\", \"last\": \"07:15\"}, {\"routeId\": \"route:IDFM:C01774-inbound\", \"from\": \"Villejuif - Louis Aragon\", \"to\": \"Porte de l'Essonne\", \"first\": \"05:30\", \"last\": \"00:30\"}]", "stop_id": "IDFM:35928", "stop_name": "H\u00e9l\u00e8ne Boucher (Orlytech)", "stop_lon": "2.3594944237431474", "stop_lat": "48.739931169050436", "operatorname": "RATP", "pointgeo": {"lon": 2.3594944237431474, "lat": 48.739931169050436}, "nom_commune": "Paray-Vieille-Poste", "code_insee": "91479"},{"id": "IDFM:C01774", "route_long_name": "T7", "plans": "[{\"link\": \"https://www.ratp.fr/sites/default/files/lines-assets/plan-de-ligne/tram/plan-de-ligne_tram_ligne-t7.pdf\", \"label\": \"Plan Tramway T7\"}]", "schedules": "[{\"routeId\": \"route:IDFM:C01774-outbound\", \"from\": \"Porte de l'Essonne\", \"to\": \"Villejuif - Louis Aragon\", \"first\": \"05:30\", \"last\": \"00:30\"}, {\"routeId\": \"route:IDFM:C01774-outbound\", \"from\": \"Porte de l'Essonne\", \"to\": \"Villejuif - Louis Aragon\", \"first\": \"06:20\", \"last\": \"07:15\"}, {\"routeId\": \"route:IDFM:C01774-inbound\", \"from\": \"Villejuif - Louis Aragon\", \"to\": \"Porte de l'Essonne\", \"first\": \"05:30\", \"last\": \"00:30\"}]", "stop_id": "IDFM:29898", "stop_name": "Caroline Aigle (Orlyfret)", "stop_lon": "2.369982657031674", "stop_lat": "48.738511893495435", "operatorname": "RATP", "pointgeo": {"lon": 2.369982657031674, "lat": 48.738511893495435}, "nom_commune": "Orly", "code_insee": "94054"},{"id": "IDFM:C01774", "route_long_name": "T7", "plans": "[{\"link\": \"https://www.ratp.fr/sites/default/files/lines-assets/plan-de-ligne/tram/plan-de-ligne_tram_ligne-t7.pdf\", \"label\": \"Plan Tramway T7\"}]", "schedules": "[{\"routeId\": \"route:IDFM:C01774-outbound\", \"from\": \"Porte de l'Essonne\", \"to\": \"Villejuif - Louis Aragon\", \"first\": \"05:30\", \"last\": \"00:30\"}, {\"routeId\": \"route:IDFM:C01774-outbound\", \"from\": \"Porte de l'Essonne\", \"to\": \"Villejuif - Louis Aragon\", \"first\": \"06:20\", \"last\": \"07:15\"}, {\"routeId\": \"route:IDFM:C01774-inbound\", \"from\": \"Villejuif - Louis Aragon\", \"to\": \"Porte de l'Essonne\", \"first\": \"05:30\", \"last\": \"00:30\"}]", "stop_id": "IDFM:35940", "stop_name": "Place de la Logistique", "stop_lon": "2.3620163305782853", "stop_lat": "48.75278864475148", "operatorname": "RATP", "pointgeo": {"lon": 2.3620163305782853, "lat": 48.75278864475148}, "nom_commune": "Rungis", "code_insee": "94065"},{"id": "IDFM:C01774", "route_long_name": "T7", "plans": "[{\"link\": \"https://www.ratp.fr/sites/default/files/lines-assets/plan-de-ligne/tram/plan-de-ligne_tram_ligne-t7.pdf\", \"label\": \"Plan Tramway T7\"}]", "schedules": "[{\"routeId\": \"route:IDFM:C01774-outbound\", \"from\": \"Porte de l'Essonne\", \"to\": \"Villejuif - Louis Aragon\", \"first\": \"05:30\", \"last\": \"00:30\"}, {\"routeId\": \"route:IDFM:C01774-outbound\", \"from\": \"Porte de l'Essonne\", \"to\": \"Villejuif - Louis Aragon\", \"first\": \"06:20\", \"last\": \"07:15\"}, {\"routeId\": \"route:IDFM:C01774-inbound\", \"from\": \"Villejuif - Louis Aragon\", \"to\": \"Porte de l'Essonne\", \"first\": \"05:30\", \"last\": \"00:30\"}]", "stop_id": "IDFM:35936", "stop_name": "Place de la Logistique", "stop_lon": "2.3619203520174077", "stop_lat": "48.75285109222686", "operatorname": "RATP", "pointgeo": {"lon": 2.3619203520174077, "lat": 48.75285109222686}, "nom_commune": "Rungis", "code_insee": "94065"},{"id": "IDFM:C01774", "route_long_name": "T7", "plans": "[{\"link\": \"https://www.ratp.fr/sites/default/files/lines-assets/plan-de-ligne/tram/plan-de-ligne_tram_ligne-t7.pdf\", \"label\": \"Plan Tramway T7\"}]", "schedules": "[{\"routeId\": \"route:IDFM:C01774-outbound\", \"from\": \"Porte de l'Essonne\", \"to\": \"Villejuif - Louis Aragon\", \"first\": \"05:30\", \"last\": \"00:30\"}, {\"routeId\": \"route:IDFM:C01774-outbound\", \"from\": \"Porte de l'Essonne\", \"to\": \"Villejuif - Louis Aragon\", \"first\": \"06:20\", \"last\": \"07:15\"}, {\"routeId\": \"route:IDFM:C01774-inbound\", \"from\": \"Villejuif - Louis Aragon\", \"to\": \"Porte de l'Essonne\", \"first\": \"05:30\", \"last\": \"00:30\"}]", "stop_id": "IDFM:35945", "stop_name": "Lamartine", "stop_lon": "2.3670756282488945", "stop_lat": "48.78314402497237", "operatorname": "RATP", "pointgeo": {"lon": 2.3670756282488945, "lat": 48.78314402497237}, "nom_commune": "Villejuif", "code_insee": "94076"},{"id": "IDFM:C01774", "route_long_name": "T7", "plans": "[{\"link\": \"https://www.ratp.fr/sites/default/files/lines-assets/plan-de-ligne/tram/plan-de-ligne_tram_ligne-t7.pdf\", \"label\": \"Plan Tramway T7\"}]", "schedules": "[{\"routeId\": \"route:IDFM:C01774-outbound\", \"from\": \"Porte de l'Essonne\", \"to\": \"Villejuif - Louis Aragon\", \"first\": \"05:30\", \"last\": \"00:30\"}, {\"routeId\": \"route:IDFM:C01774-outbound\", \"from\": \"Porte de l'Essonne\", \"to\": \"Villejuif - Louis Aragon\", \"first\": \"06:20\", \"last\": \"07:15\"}, {\"routeId\": \"route:IDFM:C01774-inbound\", \"from\": \"Villejuif - Louis Aragon\", \"to\": \"Porte de l'Essonne\", \"first\": \"05:30\", \"last\": \"00:30\"}]", "stop_id": "IDFM:35934", "stop_name": "Porte de Rungis", "stop_lon": "2.355217345676027", "stop_lat": "48.752617211452076", "operatorname": "RATP", "pointgeo": {"lon": 2.355217345676027, "lat": 48.752617211452076}, "nom_commune": "Rungis", "code_insee": "94065"},{"id": "IDFM:C01774", "route_long_name": "T7", "plans": "[{\"link\": \"https://www.ratp.fr/sites/default/files/lines-assets/plan-de-ligne/tram/plan-de-ligne_tram_ligne-t7.pdf\", \"label\": \"Plan Tramway T7\"}]", "schedules": "[{\"routeId\": \"route:IDFM:C01774-outbound\", \"from\": \"Porte de l'Essonne\", \"to\": \"Villejuif - Louis Aragon\", \"first\": \"05:30\", \"last\": \"00:30\"}, {\"routeId\": \"route:IDFM:C01774-outbound\", \"from\": \"Porte de l'Essonne\", \"to\": \"Villejuif - Louis Aragon\", \"first\": \"06:20\", \"last\": \"07:15\"}, {\"routeId\": \"route:IDFM:C01774-inbound\", \"from\": \"Villejuif - Louis Aragon\", \"to\": \"Porte de l'Essonne\", \"first\": \"05:30\", \"last\": \"00:30\"}]", "stop_id": "IDFM:35930", "stop_name": "Porte de Thiais", "stop_lon": "2.366381339786971", "stop_lat": "48.75962056877212", "operatorname": "RATP", "pointgeo": {"lon": 2.366381339786971, "lat": 48.75962056877212}, "nom_commune": "Chevilly-Larue", "code_insee": "94021"},{"id": "IDFM:C01774", "route_long_name": "T7", "plans": "[{\"link\": \"https://www.ratp.fr/sites/default/files/lines-assets/plan-de-ligne/tram/plan-de-ligne_tram_ligne-t7.pdf\", \"label\": \"Plan Tramway T7\"}]", "schedules": "[{\"routeId\": \"route:IDFM:C01774-outbound\", \"from\": \"Porte de l'Essonne\", \"to\": \"Villejuif - Louis Aragon\", \"first\": \"05:30\", \"last\": \"00:30\"}, {\"routeId\": \"route:IDFM:C01774-outbound\", \"from\": \"Porte de l'Essonne\", \"to\": \"Villejuif - Louis Aragon\", \"first\": \"06:20\", \"last\": \"07:15\"}, {\"routeId\": \"route:IDFM:C01774-inbound\", \"from\": \"Villejuif - Louis Aragon\", \"to\": \"Porte de l'Essonne\", \"first\": \"05:30\", \"last\": \"00:30\"}]", "stop_id": "IDFM:29905", "stop_name": "Moulin Vert", "stop_lon": "2.3677409694016562", "stop_lat": "48.77203979899573", "operatorname": "RATP", "pointgeo": {"lon": 2.3677409694016562, "lat": 48.77203979899573}, "nom_commune": "Chevilly-Larue", "code_insee": "94021"},{"id": "IDFM:C01774", "route_long_name": "T7", "plans": "[{\"link\": \"https://www.ratp.fr/sites/default/files/lines-assets/plan-de-ligne/tram/plan-de-ligne_tram_ligne-t7.pdf\", \"label\": \"Plan Tramway T7\"}]", "schedules": "[{\"routeId\": \"route:IDFM:C01774-outbound\", \"from\": \"Porte de l'Essonne\", \"to\": \"Villejuif - Louis Aragon\", \"first\": \"05:30\", \"last\": \"00:30\"}, {\"routeId\": \"route:IDFM:C01774-outbound\", \"from\": \"Porte de l'Essonne\", \"to\": \"Villejuif - Louis Aragon\", \"first\": \"06:20\", \"last\": \"07:15\"}, {\"routeId\": \"route:IDFM:C01774-inbound\", \"from\": \"Villejuif - Louis Aragon\", \"to\": \"Porte de l'Essonne\", \"first\": \"05:30\", \"last\": \"00:30\"}]", "stop_id": "IDFM:35931", "stop_name": "Auguste Perret (Cimeti\u00e8re Parisien)", "stop_lon": "2.367709829472114", "stop_lat": "48.763378213742165", "operatorname": "RATP", "pointgeo": {"lon": 2.367709829472114, "lat": 48.763378213742165}, "nom_commune": "Chevilly-Larue", "code_insee": "94021"},{"id": "IDFM:C01774", "route_long_name": "T7", "plans": "[{\"link\": \"https://www.ratp.fr/sites/default/files/lines-assets/plan-de-ligne/tram/plan-de-ligne_tram_ligne-t7.pdf\", \"label\": \"Plan Tramway T7\"}]", "schedules": "[{\"routeId\": \"route:IDFM:C01774-outbound\", \"from\": \"Porte de l'Essonne\", \"to\": \"Villejuif - Louis Aragon\", \"first\": \"05:30\", \"last\": \"00:30\"}, {\"routeId\": \"route:IDFM:C01774-outbound\", \"from\": \"Porte de l'Essonne\", \"to\": \"Villejuif - Louis Aragon\", \"first\": \"06:20\", \"last\": \"07:15\"}, {\"routeId\": \"route:IDFM:C01774-inbound\", \"from\": \"Villejuif - Louis Aragon\", \"to\": \"Porte de l'Essonne\", \"first\": \"05:30\", \"last\": \"00:30\"}]", "stop_id": "IDFM:35929", "stop_name": "Porte de Thiais", "stop_lon": "2.366382322204741", "stop_lat": "48.7595396255455", "operatorname": "RATP", "pointgeo": {"lon": 2.366382322204741, "lat": 48.7595396255455}, "nom_commune": "Chevilly-Larue", "code_insee": "94021"},{"id": "IDFM:C01774", "route_long_name": "T7", "plans": "[{\"link\": \"https://www.ratp.fr/sites/default/files/lines-assets/plan-de-ligne/tram/plan-de-ligne_tram_ligne-t7.pdf\", \"label\": \"Plan Tramway T7\"}]", "schedules": "[{\"routeId\": \"route:IDFM:C01774-outbound\", \"from\": \"Porte de l'Essonne\", \"to\": \"Villejuif - Louis Aragon\", \"first\": \"05:30\", \"last\": \"00:30\"}, {\"routeId\": \"route:IDFM:C01774-outbound\", \"from\": \"Porte de l'Essonne\", \"to\": \"Villejuif - Louis Aragon\", \"first\": \"06:20\", \"last\": \"07:15\"}, {\"routeId\": \"route:IDFM:C01774-inbound\", \"from\": \"Villejuif - Louis Aragon\", \"to\": \"Porte de l'Essonne\", \"first\": \"05:30\", \"last\": \"00:30\"}]", "stop_id": "IDFM:35932", "stop_name": "Coeur d'Orly", "stop_lon": "2.371192271245693", "stop_lat": "48.73404803036111", "operatorname": "RATP", "pointgeo": {"lon": 2.371192271245693, "lat": 48.73404803036111}, "nom_commune": "Orly", "code_insee": "94054"},{"id": "IDFM:C01774", "route_long_name": "T7", "plans": "[{\"link\": \"https://www.ratp.fr/sites/default/files/lines-assets/plan-de-ligne/tram/plan-de-ligne_tram_ligne-t7.pdf\", \"label\": \"Plan Tramway T7\"}]", "schedules": "[{\"routeId\": \"route:IDFM:C01774-outbound\", \"from\": \"Porte de l'Essonne\", \"to\": \"Villejuif - Louis Aragon\", \"first\": \"05:30\", \"last\": \"00:30\"}, {\"routeId\": \"route:IDFM:C01774-outbound\", \"from\": \"Porte de l'Essonne\", \"to\": \"Villejuif - Louis Aragon\", \"first\": \"06:20\", \"last\": \"07:15\"}, {\"routeId\": \"route:IDFM:C01774-inbound\", \"from\": \"Villejuif - Louis Aragon\", \"to\": \"Porte de l'Essonne\", \"first\": \"05:30\", \"last\": \"00:30\"}]", "stop_id": "IDFM:462937", "stop_name": "Porte de l'Essonne", "stop_lon": "2.371713317831807", "stop_lat": "48.71446965907271", "operatorname": "RATP", "pointgeo": {"lon": 2.371713317831807, "lat": 48.71446965907271}, "nom_commune": "Athis-Mons", "code_insee": "91027"},{"id": "IDFM:C01774", "route_long_name": "T7", "plans": "[{\"link\": \"https://www.ratp.fr/sites/default/files/lines-assets/plan-de-ligne/tram/plan-de-ligne_tram_ligne-t7.pdf\", \"label\": \"Plan Tramway T7\"}]", "schedules": "[{\"routeId\": \"route:IDFM:C01774-outbound\", \"from\": \"Porte de l'Essonne\", \"to\": \"Villejuif - Louis Aragon\", \"first\": \"05:30\", \"last\": \"00:30\"}, {\"routeId\": \"route:IDFM:C01774-outbound\", \"from\": \"Porte de l'Essonne\", \"to\": \"Villejuif - Louis Aragon\", \"first\": \"06:20\", \"last\": \"07:15\"}, {\"routeId\": \"route:IDFM:C01774-inbound\", \"from\": \"Villejuif - Louis Aragon\", \"to\": \"Porte de l'Essonne\", \"first\": \"05:30\", \"last\": \"00:30\"}]", "stop_id": "IDFM:35926", "stop_name": "Porte de l'Essonne", "stop_lon": "2.371672327475938", "stop_lat": "48.71448743246356", "operatorname": "RATP", "pointgeo": {"lon": 2.371672327475938, "lat": 48.71448743246356}, "nom_commune": "Athis-Mons", "code_insee": "91027"},{"id": "IDFM:C01774", "route_long_name": "T7", "plans": "[{\"link\": \"https://www.ratp.fr/sites/default/files/lines-assets/plan-de-ligne/tram/plan-de-ligne_tram_ligne-t7.pdf\", \"label\": \"Plan Tramway T7\"}]", "schedules": "[{\"routeId\": \"route:IDFM:C01774-outbound\", \"from\": \"Porte de l'Essonne\", \"to\": \"Villejuif - Louis Aragon\", \"first\": \"05:30\", \"last\": \"00:30\"}, {\"routeId\": \"route:IDFM:C01774-outbound\", \"from\": \"Porte de l'Essonne\", \"to\": \"Villejuif - Louis Aragon\", \"first\": \"06:20\", \"last\": \"07:15\"}, {\"routeId\": \"route:IDFM:C01774-inbound\", \"from\": \"Villejuif - Louis Aragon\", \"to\": \"Porte de l'Essonne\", \"first\": \"05:30\", \"last\": \"00:30\"}]", "stop_id": "IDFM:29893", "stop_name": "H\u00e9l\u00e8ne Boucher (Orlytech)", "stop_lon": "2.3595069186987048", "stop_lat": "48.74002118038836", "operatorname": "RATP", "pointgeo": {"lon": 2.3595069186987048, "lat": 48.74002118038836}, "nom_commune": "Paray-Vieille-Poste", "code_insee": "91479"},{"id": "IDFM:C01774", "route_long_name": "T7", "plans": "[{\"link\": \"https://www.ratp.fr/sites/default/files/lines-assets/plan-de-ligne/tram/plan-de-ligne_tram_ligne-t7.pdf\", \"label\": \"Plan Tramway T7\"}]", "schedules": "[{\"routeId\": \"route:IDFM:C01774-outbound\", \"from\": \"Porte de l'Essonne\", \"to\": \"Villejuif - Louis Aragon\", \"first\": \"05:30\", \"last\": \"00:30\"}, {\"routeId\": \"route:IDFM:C01774-outbound\", \"from\": \"Porte de l'Essonne\", \"to\": \"Villejuif - Louis Aragon\", \"first\": \"06:20\", \"last\": \"07:15\"}, {\"routeId\": \"route:IDFM:C01774-inbound\", \"from\": \"Villejuif - Louis Aragon\", \"to\": \"Porte de l'Essonne\", \"first\": \"05:30\", \"last\": \"00:30\"}]", "stop_id": "IDFM:29897", "stop_name": "Auguste Perret (Cimeti\u00e8re Parisien)", "stop_lon": "2.3678192066888246", "stop_lat": "48.76333382151934", "operatorname": "RATP", "pointgeo": {"lon": 2.3678192066888246, "lat": 48.76333382151934}, "nom_commune": "Chevilly-Larue", "code_insee": "94021"},{"id": "IDFM:C01774", "route_long_name": "T7", "plans": "[{\"link\": \"https://www.ratp.fr/sites/default/files/lines-assets/plan-de-ligne/tram/plan-de-ligne_tram_ligne-t7.pdf\", \"label\": \"Plan Tramway T7\"}]", "schedules": "[{\"routeId\": \"route:IDFM:C01774-outbound\", \"from\": \"Porte de l'Essonne\", \"to\": \"Villejuif - Louis Aragon\", \"first\": \"05:30\", \"last\": \"00:30\"}, {\"routeId\": \"route:IDFM:C01774-outbound\", \"from\": \"Porte de l'Essonne\", \"to\": \"Villejuif - Louis Aragon\", \"first\": \"06:20\", \"last\": \"07:15\"}, {\"routeId\": \"route:IDFM:C01774-inbound\", \"from\": \"Villejuif - Louis Aragon\", \"to\": \"Porte de l'Essonne\", \"first\": \"05:30\", \"last\": \"00:30\"}]", "stop_id": "IDFM:460559", "stop_name": "Lamartine", "stop_lon": "2.3672374121860154", "stop_lat": "48.78327079902779", "operatorname": "RATP", "pointgeo": {"lon": 2.3672374121860154, "lat": 48.78327079902779}, "nom_commune": "Villejuif", "code_insee": "94076"}]