[{"id": "IDFM:C01380", "route_long_name": "10", "plans": "[{\"link\": \"https://www.ratp.fr/sites/default/files/lines-assets/plan-de-ligne/metro/plan-de-ligne_metro_ligne-10.pdf\", \"label\": \"Plan M\u00e9tro 10\"}]", "schedules": "[{\"routeId\": \"route:IDFM:RATP:107730-C01380-ITI_IDFM_C01380_A_-1374171964\", \"from\": \"Boulogne Pont de Saint-Cloud\", \"to\": \"Gare d'Austerlitz\", \"first\": \"05:35\", \"last\": \"01:47\"}, {\"routeId\": \"route:IDFM:RATP:107730-C01380-ITI_IDFM_C01380_R_-1976929239\", \"from\": \"Gare d'Austerlitz\", \"to\": \"Boulogne Pont de Saint-Cloud\", \"first\": \"05:30\", \"last\": \"01:41\"}]", "stop_id": "IDFM:21982", "stop_name": "Mirabeau", "stop_lon": "2.2730641263728333", "stop_lat": "48.84707750734599", "operatorname": "RATP", "pointgeo": {"lon": 2.2730641263728333, "lat": 48.84707750734599}, "nom_commune": "Paris", "code_insee": "75056"},{"id": "IDFM:C01380", "route_long_name": "10", "plans": "[{\"link\": \"https://www.ratp.fr/sites/default/files/lines-assets/plan-de-ligne/metro/plan-de-ligne_metro_ligne-10.pdf\", \"label\": \"Plan M\u00e9tro 10\"}]", "schedules": "[{\"routeId\": \"route:IDFM:RATP:107730-C01380-ITI_IDFM_C01380_A_-1374171964\", \"from\": \"Boulogne Pont de Saint-Cloud\", \"to\": \"Gare d'Austerlitz\", \"first\": \"05:35\", \"last\": \"01:47\"}, {\"routeId\": \"route:IDFM:RATP:107730-C01380-ITI_IDFM_C01380_R_-1976929239\", \"from\": \"Gare d'Austerlitz\", \"to\": \"Boulogne Pont de Saint-Cloud\", \"first\": \"05:30\", \"last\": \"01:41\"}]", "stop_id": "IDFM:21987", "stop_name": "Avenue \u00c9mile Zola", "stop_lon": "2.2950459810371475", "stop_lat": "48.84695722990175", "operatorname": "RATP", "pointgeo": {"lon": 2.2950459810371475, "lat": 48.84695722990175}, "nom_commune": "Paris", "code_insee": "75056"},{"id": "IDFM:C01380", "route_long_name": "10", "plans": "[{\"link\": \"https://www.ratp.fr/sites/default/files/lines-assets/plan-de-ligne/metro/plan-de-ligne_metro_ligne-10.pdf\", \"label\": \"Plan M\u00e9tro 10\"}]", "schedules": "[{\"routeId\": \"route:IDFM:RATP:107730-C01380-ITI_IDFM_C01380_A_-1374171964\", \"from\": \"Boulogne Pont de Saint-Cloud\", \"to\": \"Gare d'Austerlitz\", \"first\": \"05:35\", \"last\": \"01:47\"}, {\"routeId\": \"route:IDFM:RATP:107730-C01380-ITI_IDFM_C01380_R_-1976929239\", \"from\": \"Gare d'Austerlitz\", \"to\": \"Boulogne Pont de Saint-Cloud\", \"first\": \"05:30\", \"last\": \"01:41\"}]", "stop_id": "IDFM:21973", "stop_name": "Mabillon", "stop_lon": "2.335142819346476", "stop_lat": "48.85284373829949", "operatorname": "RATP", "pointgeo": {"lon": 2.335142819346476, "lat": 48.85284373829949}, "nom_commune": "Paris", "code_insee": "75056"},{"id": "IDFM:C01380", "route_long_name": "10", "plans": "[{\"link\": \"https://www.ratp.fr/sites/default/files/lines-assets/plan-de-ligne/metro/plan-de-ligne_metro_ligne-10.pdf\", \"label\": \"Plan M\u00e9tro 10\"}]", "schedules": "[{\"routeId\": \"route:IDFM:RATP:107730-C01380-ITI_IDFM_C01380_A_-1374171964\", \"from\": \"Boulogne Pont de Saint-Cloud\", \"to\": \"Gare d'Austerlitz\", \"first\": \"05:35\", \"last\": \"01:47\"}, {\"routeId\": \"route:IDFM:RATP:107730-C01380-ITI_IDFM_C01380_R_-1976929239\", \"from\": \"Gare d'Austerlitz\", \"to\": \"Boulogne Pont de Saint-Cloud\", \"first\": \"05:30\", \"last\": \"01:41\"}]", "stop_id": "IDFM:21975", "stop_name": "Maubert - Mutualit\u00e9", "stop_lon": "2.348219343927666", "stop_lat": "48.85010969451494", "operatorname": "RATP", "pointgeo": {"lon": 2.348219343927666, "lat": 48.85010969451494}, "nom_commune": "Paris", "code_insee": "75056"},{"id": "IDFM:C01380", "route_long_name": "10", "plans": "[{\"link\": \"https://www.ratp.fr/sites/default/files/lines-assets/plan-de-ligne/metro/plan-de-ligne_metro_ligne-10.pdf\", \"label\": \"Plan M\u00e9tro 10\"}]", "schedules": "[{\"routeId\": \"route:IDFM:RATP:107730-C01380-ITI_IDFM_C01380_A_-1374171964\", \"from\": \"Boulogne Pont de Saint-Cloud\", \"to\": \"Gare d'Austerlitz\", \"first\": \"05:35\", \"last\": \"01:47\"}, {\"routeId\": \"route:IDFM:RATP:107730-C01380-ITI_IDFM_C01380_R_-1976929239\", \"from\": \"Gare d'Austerlitz\", \"to\": \"Boulogne Pont de Saint-Cloud\", \"first\": \"05:30\", \"last\": \"01:41\"}]", "stop_id": "IDFM:21967", "stop_name": "Gare d'Austerlitz", "stop_lon": "2.3645307640842486", "stop_lat": "48.842355035073275", "operatorname": "RATP", "pointgeo": {"lon": 2.3645307640842486, "lat": 48.842355035073275}, "nom_commune": "Paris", "code_insee": "75056"},{"id": "IDFM:C01380", "route_long_name": "10", "plans": "[{\"link\": \"https://www.ratp.fr/sites/default/files/lines-assets/plan-de-ligne/metro/plan-de-ligne_metro_ligne-10.pdf\", \"label\": \"Plan M\u00e9tro 10\"}]", "schedules": "[{\"routeId\": \"route:IDFM:RATP:107730-C01380-ITI_IDFM_C01380_A_-1374171964\", \"from\": \"Boulogne Pont de Saint-Cloud\", \"to\": \"Gare d'Austerlitz\", \"first\": \"05:35\", \"last\": \"01:47\"}, {\"routeId\": \"route:IDFM:RATP:107730-C01380-ITI_IDFM_C01380_R_-1976929239\", \"from\": \"Gare d'Austerlitz\", \"to\": \"Boulogne Pont de Saint-Cloud\", \"first\": \"05:30\", \"last\": \"01:41\"}]", "stop_id": "IDFM:21972", "stop_name": "Javel - Andr\u00e9 Citro\u00ebn", "stop_lon": "2.278009496527359", "stop_lat": "48.84618110622323", "operatorname": "RATP", "pointgeo": {"lon": 2.278009496527359, "lat": 48.84618110622323}, "nom_commune": "Paris", "code_insee": "75056"},{"id": "IDFM:C01380", "route_long_name": "10", "plans": "[{\"link\": \"https://www.ratp.fr/sites/default/files/lines-assets/plan-de-ligne/metro/plan-de-ligne_metro_ligne-10.pdf\", \"label\": \"Plan M\u00e9tro 10\"}]", "schedules": "[{\"routeId\": \"route:IDFM:RATP:107730-C01380-ITI_IDFM_C01380_A_-1374171964\", \"from\": \"Boulogne Pont de Saint-Cloud\", \"to\": \"Gare d'Austerlitz\", \"first\": \"05:35\", \"last\": \"01:47\"}, {\"routeId\": \"route:IDFM:RATP:107730-C01380-ITI_IDFM_C01380_R_-1976929239\", \"from\": \"Gare d'Austerlitz\", \"to\": \"Boulogne Pont de Saint-Cloud\", \"first\": \"05:30\", \"last\": \"01:41\"}]", "stop_id": "IDFM:21974", "stop_name": "Porte d'Auteuil", "stop_lon": "2.2582639186231943", "stop_lat": "48.84812886119474", "operatorname": "RATP", "pointgeo": {"lon": 2.2582639186231943, "lat": 48.84812886119474}, "nom_commune": "Paris", "code_insee": "75056"},{"id": "IDFM:C01380", "route_long_name": "10", "plans": "[{\"link\": \"https://www.ratp.fr/sites/default/files/lines-assets/plan-de-ligne/metro/plan-de-ligne_metro_ligne-10.pdf\", \"label\": \"Plan M\u00e9tro 10\"}]", "schedules": "[{\"routeId\": \"route:IDFM:RATP:107730-C01380-ITI_IDFM_C01380_A_-1374171964\", \"from\": \"Boulogne Pont de Saint-Cloud\", \"to\": \"Gare d'Austerlitz\", \"first\": \"05:35\", \"last\": \"01:47\"}, {\"routeId\": \"route:IDFM:RATP:107730-C01380-ITI_IDFM_C01380_R_-1976929239\", \"from\": \"Gare d'Austerlitz\", \"to\": \"Boulogne Pont de Saint-Cloud\", \"first\": \"05:30\", \"last\": \"01:41\"}]", "stop_id": "IDFM:463136", "stop_name": "Boulogne Pont de Saint-Cloud", "stop_lon": "2.2283125898228056", "stop_lat": "48.84067248206251", "operatorname": "RATP", "pointgeo": {"lon": 2.2283125898228056, "lat": 48.84067248206251}, "nom_commune": "Boulogne-Billancourt", "code_insee": "92012"},{"id": "IDFM:C01380", "route_long_name": "10", "plans": "[{\"link\": \"https://www.ratp.fr/sites/default/files/lines-assets/plan-de-ligne/metro/plan-de-ligne_metro_ligne-10.pdf\", \"label\": \"Plan M\u00e9tro 10\"}]", "schedules": "[{\"routeId\": \"route:IDFM:RATP:107730-C01380-ITI_IDFM_C01380_A_-1374171964\", \"from\": \"Boulogne Pont de Saint-Cloud\", \"to\": \"Gare d'Austerlitz\", \"first\": \"05:35\", \"last\": \"01:47\"}, {\"routeId\": \"route:IDFM:RATP:107730-C01380-ITI_IDFM_C01380_R_-1976929239\", \"from\": \"Gare d'Austerlitz\", \"to\": \"Boulogne Pont de Saint-Cloud\", \"first\": \"05:30\", \"last\": \"01:41\"}]", "stop_id": "IDFM:21904", "stop_name": "Michel-Ange - Molitor", "stop_lon": "2.2618218573220084", "stop_lat": "48.84515597018703", "operatorname": "RATP", "pointgeo": {"lon": 2.2618218573220084, "lat": 48.84515597018703}, "nom_commune": "Paris", "code_insee": "75056"},{"id": "IDFM:C01380", "route_long_name": "10", "plans": "[{\"link\": \"https://www.ratp.fr/sites/default/files/lines-assets/plan-de-ligne/metro/plan-de-ligne_metro_ligne-10.pdf\", \"label\": \"Plan M\u00e9tro 10\"}]", "schedules": "[{\"routeId\": \"route:IDFM:RATP:107730-C01380-ITI_IDFM_C01380_A_-1374171964\", \"from\": \"Boulogne Pont de Saint-Cloud\", \"to\": \"Gare d'Austerlitz\", \"first\": \"05:35\", \"last\": \"01:47\"}, {\"routeId\": \"route:IDFM:RATP:107730-C01380-ITI_IDFM_C01380_R_-1976929239\", \"from\": \"Gare d'Austerlitz\", \"to\": \"Boulogne Pont de Saint-Cloud\", \"first\": \"05:30\", \"last\": \"01:41\"}]", "stop_id": "IDFM:462944", "stop_name": "Cluny - La Sorbonne", "stop_lon": "2.3450218824744566", "stop_lat": "48.850793731720536", "operatorname": "RATP", "pointgeo": {"lon": 2.3450218824744566, "lat": 48.850793731720536}, "nom_commune": "Paris", "code_insee": "75056"},{"id": "IDFM:C01380", "route_long_name": "10", "plans": "[{\"link\": \"https://www.ratp.fr/sites/default/files/lines-assets/plan-de-ligne/metro/plan-de-ligne_metro_ligne-10.pdf\", \"label\": \"Plan M\u00e9tro 10\"}]", "schedules": "[{\"routeId\": \"route:IDFM:RATP:107730-C01380-ITI_IDFM_C01380_A_-1374171964\", \"from\": \"Boulogne Pont de Saint-Cloud\", \"to\": \"Gare d'Austerlitz\", \"first\": \"05:35\", \"last\": \"01:47\"}, {\"routeId\": \"route:IDFM:RATP:107730-C01380-ITI_IDFM_C01380_R_-1976929239\", \"from\": \"Gare d'Austerlitz\", \"to\": \"Boulogne Pont de Saint-Cloud\", \"first\": \"05:30\", \"last\": \"01:41\"}]", "stop_id": "IDFM:462998", "stop_name": "Od\u00e9on", "stop_lon": "2.340692291066523", "stop_lat": "48.85202455451491", "operatorname": "RATP", "pointgeo": {"lon": 2.340692291066523, "lat": 48.85202455451491}, "nom_commune": "Paris", "code_insee": "75056"},{"id": "IDFM:C01380", "route_long_name": "10", "plans": "[{\"link\": \"https://www.ratp.fr/sites/default/files/lines-assets/plan-de-ligne/metro/plan-de-ligne_metro_ligne-10.pdf\", \"label\": \"Plan M\u00e9tro 10\"}]", "schedules": "[{\"routeId\": \"route:IDFM:RATP:107730-C01380-ITI_IDFM_C01380_A_-1374171964\", \"from\": \"Boulogne Pont de Saint-Cloud\", \"to\": \"Gare d'Austerlitz\", \"first\": \"05:35\", \"last\": \"01:47\"}, {\"routeId\": \"route:IDFM:RATP:107730-C01380-ITI_IDFM_C01380_R_-1976929239\", \"from\": \"Gare d'Austerlitz\", \"to\": \"Boulogne Pont de Saint-Cloud\", \"first\": \"05:30\", \"last\": \"01:41\"}]", "stop_id": "IDFM:21970", "stop_name": "Duroc", "stop_lon": "2.3162247549746047", "stop_lat": "48.84675637808778", "operatorname": "RATP", "pointgeo": {"lon": 2.3162247549746047, "lat": 48.84675637808778}, "nom_commune": "Paris", "code_insee": "75056"},{"id": "IDFM:C01380", "route_long_name": "10", "plans": "[{\"link\": \"https://www.ratp.fr/sites/default/files/lines-assets/plan-de-ligne/metro/plan-de-ligne_metro_ligne-10.pdf\", \"label\": \"Plan M\u00e9tro 10\"}]", "schedules": "[{\"routeId\": \"route:IDFM:RATP:107730-C01380-ITI_IDFM_C01380_A_-1374171964\", \"from\": \"Boulogne Pont de Saint-Cloud\", \"to\": \"Gare d'Austerlitz\", \"first\": \"05:35\", \"last\": \"01:47\"}, {\"routeId\": \"route:IDFM:RATP:107730-C01380-ITI_IDFM_C01380_R_-1976929239\", \"from\": \"Gare d'Austerlitz\", \"to\": \"Boulogne Pont de Saint-Cloud\", \"first\": \"05:30\", \"last\": \"01:41\"}]", "stop_id": "IDFM:463137", "stop_name": "Boulogne Jean Jaur\u00e8s", "stop_lon": "2.239077780728926", "stop_lat": "48.841991575324506", "operatorname": "RATP", "pointgeo": {"lon": 2.239077780728926, "lat": 48.841991575324506}, "nom_commune": "Boulogne-Billancourt", "code_insee": "92012"},{"id": "IDFM:C01380", "route_long_name": "10", "plans": "[{\"link\": \"https://www.ratp.fr/sites/default/files/lines-assets/plan-de-ligne/metro/plan-de-ligne_metro_ligne-10.pdf\", \"label\": \"Plan M\u00e9tro 10\"}]", "schedules": "[{\"routeId\": \"route:IDFM:RATP:107730-C01380-ITI_IDFM_C01380_A_-1374171964\", \"from\": \"Boulogne Pont de Saint-Cloud\", \"to\": \"Gare d'Austerlitz\", \"first\": \"05:35\", \"last\": \"01:47\"}, {\"routeId\": \"route:IDFM:RATP:107730-C01380-ITI_IDFM_C01380_R_-1976929239\", \"from\": \"Gare d'Austerlitz\", \"to\": \"Boulogne Pont de Saint-Cloud\", \"first\": \"05:30\", \"last\": \"01:41\"}]", "stop_id": "IDFM:21983", "stop_name": "Cluny - La Sorbonne", "stop_lon": "2.3448963012120796", "stop_lat": "48.851026876874485", "operatorname": "RATP", "pointgeo": {"lon": 2.3448963012120796, "lat": 48.851026876874485}, "nom_commune": "Paris", "code_insee": "75056"},{"id": "IDFM:C01380", "route_long_name": "10", "plans": "[{\"link\": \"https://www.ratp.fr/sites/default/files/lines-assets/plan-de-ligne/metro/plan-de-ligne_metro_ligne-10.pdf\", \"label\": \"Plan M\u00e9tro 10\"}]", "schedules": "[{\"routeId\": \"route:IDFM:RATP:107730-C01380-ITI_IDFM_C01380_A_-1374171964\", \"from\": \"Boulogne Pont de Saint-Cloud\", \"to\": \"Gare d'Austerlitz\", \"first\": \"05:35\", \"last\": \"01:47\"}, {\"routeId\": \"route:IDFM:RATP:107730-C01380-ITI_IDFM_C01380_R_-1976929239\", \"from\": \"Gare d'Austerlitz\", \"to\": \"Boulogne Pont de Saint-Cloud\", \"first\": \"05:30\", \"last\": \"01:41\"}]", "stop_id": "IDFM:462967", "stop_name": "S\u00e8vres - Babylone", "stop_lon": "2.3261490660967246", "stop_lat": "48.85112511792463", "operatorname": "RATP", "pointgeo": {"lon": 2.3261490660967246, "lat": 48.85112511792463}, "nom_commune": "Paris", "code_insee": "75056"},{"id": "IDFM:C01380", "route_long_name": "10", "plans": "[{\"link\": \"https://www.ratp.fr/sites/default/files/lines-assets/plan-de-ligne/metro/plan-de-ligne_metro_ligne-10.pdf\", \"label\": \"Plan M\u00e9tro 10\"}]", "schedules": "[{\"routeId\": \"route:IDFM:RATP:107730-C01380-ITI_IDFM_C01380_A_-1374171964\", \"from\": \"Boulogne Pont de Saint-Cloud\", \"to\": \"Gare d'Austerlitz\", \"first\": \"05:35\", \"last\": \"01:47\"}, {\"routeId\": \"route:IDFM:RATP:107730-C01380-ITI_IDFM_C01380_R_-1976929239\", \"from\": \"Gare d'Austerlitz\", \"to\": \"Boulogne Pont de Saint-Cloud\", \"first\": \"05:30\", \"last\": \"01:41\"}]", "stop_id": "IDFM:463076", "stop_name": "Charles Michels", "stop_lon": "2.2856210133667174", "stop_lat": "48.84660453239739", "operatorname": "RATP", "pointgeo": {"lon": 2.2856210133667174, "lat": 48.84660453239739}, "nom_commune": "Paris", "code_insee": "75056"},{"id": "IDFM:C01380", "route_long_name": "10", "plans": "[{\"link\": \"https://www.ratp.fr/sites/default/files/lines-assets/plan-de-ligne/metro/plan-de-ligne_metro_ligne-10.pdf\", \"label\": \"Plan M\u00e9tro 10\"}]", "schedules": "[{\"routeId\": \"route:IDFM:RATP:107730-C01380-ITI_IDFM_C01380_A_-1374171964\", \"from\": \"Boulogne Pont de Saint-Cloud\", \"to\": \"Gare d'Austerlitz\", \"first\": \"05:35\", \"last\": \"01:47\"}, {\"routeId\": \"route:IDFM:RATP:107730-C01380-ITI_IDFM_C01380_R_-1976929239\", \"from\": \"Gare d'Austerlitz\", \"to\": \"Boulogne Pont de Saint-Cloud\", \"first\": \"05:30\", \"last\": \"01:41\"}]", "stop_id": "IDFM:21907", "stop_name": "Michel-Ange - Auteuil", "stop_lon": "2.263989525333329", "stop_lat": "48.84797535417627", "operatorname": "RATP", "pointgeo": {"lon": 2.263989525333329, "lat": 48.84797535417627}, "nom_commune": "Paris", "code_insee": "75056"},{"id": "IDFM:C01380", "route_long_name": "10", "plans": "[{\"link\": \"https://www.ratp.fr/sites/default/files/lines-assets/plan-de-ligne/metro/plan-de-ligne_metro_ligne-10.pdf\", \"label\": \"Plan M\u00e9tro 10\"}]", "schedules": "[{\"routeId\": \"route:IDFM:RATP:107730-C01380-ITI_IDFM_C01380_A_-1374171964\", \"from\": \"Boulogne Pont de Saint-Cloud\", \"to\": \"Gare d'Austerlitz\", \"first\": \"05:35\", \"last\": \"01:47\"}, {\"routeId\": \"route:IDFM:RATP:107730-C01380-ITI_IDFM_C01380_R_-1976929239\", \"from\": \"Gare d'Austerlitz\", \"to\": \"Boulogne Pont de Saint-Cloud\", \"first\": \"05:30\", \"last\": \"01:41\"}]", "stop_id": "IDFM:463234", "stop_name": "Porte d'Auteuil", "stop_lon": "2.258280744595537", "stop_lat": "48.847904123629235", "operatorname": "RATP", "pointgeo": {"lon": 2.258280744595537, "lat": 48.847904123629235}, "nom_commune": "Paris", "code_insee": "75056"},{"id": "IDFM:C01380", "route_long_name": "10", "plans": "[{\"link\": \"https://www.ratp.fr/sites/default/files/lines-assets/plan-de-ligne/metro/plan-de-ligne_metro_ligne-10.pdf\", \"label\": \"Plan M\u00e9tro 10\"}]", "schedules": "[{\"routeId\": \"route:IDFM:RATP:107730-C01380-ITI_IDFM_C01380_A_-1374171964\", \"from\": \"Boulogne Pont de Saint-Cloud\", \"to\": \"Gare d'Austerlitz\", \"first\": \"05:35\", \"last\": \"01:47\"}, {\"routeId\": \"route:IDFM:RATP:107730-C01380-ITI_IDFM_C01380_R_-1976929239\", \"from\": \"Gare d'Austerlitz\", \"to\": \"Boulogne Pont de Saint-Cloud\", \"first\": \"05:30\", \"last\": \"01:41\"}]", "stop_id": "IDFM:463315", "stop_name": "S\u00e9gur", "stop_lon": "2.307137849403385", "stop_lat": "48.847167269995026", "operatorname": "RATP", "pointgeo": {"lon": 2.307137849403385, "lat": 48.847167269995026}, "nom_commune": "Paris", "code_insee": "75056"},{"id": "IDFM:C01380", "route_long_name": "10", "plans": "[{\"link\": \"https://www.ratp.fr/sites/default/files/lines-assets/plan-de-ligne/metro/plan-de-ligne_metro_ligne-10.pdf\", \"label\": \"Plan M\u00e9tro 10\"}]", "schedules": "[{\"routeId\": \"route:IDFM:RATP:107730-C01380-ITI_IDFM_C01380_A_-1374171964\", \"from\": \"Boulogne Pont de Saint-Cloud\", \"to\": \"Gare d'Austerlitz\", \"first\": \"05:35\", \"last\": \"01:47\"}, {\"routeId\": \"route:IDFM:RATP:107730-C01380-ITI_IDFM_C01380_R_-1976929239\", \"from\": \"Gare d'Austerlitz\", \"to\": \"Boulogne Pont de Saint-Cloud\", \"first\": \"05:30\", \"last\": \"01:41\"}]", "stop_id": "IDFM:21977", "stop_name": "Vaneau", "stop_lon": "2.321227717195941", "stop_lat": "48.84870050683084", "operatorname": "RATP", "pointgeo": {"lon": 2.321227717195941, "lat": 48.84870050683084}, "nom_commune": "Paris", "code_insee": "75056"},{"id": "IDFM:C01380", "route_long_name": "10", "plans": "[{\"link\": \"https://www.ratp.fr/sites/default/files/lines-assets/plan-de-ligne/metro/plan-de-ligne_metro_ligne-10.pdf\", \"label\": \"Plan M\u00e9tro 10\"}]", "schedules": "[{\"routeId\": \"route:IDFM:RATP:107730-C01380-ITI_IDFM_C01380_A_-1374171964\", \"from\": \"Boulogne Pont de Saint-Cloud\", \"to\": \"Gare d'Austerlitz\", \"first\": \"05:35\", \"last\": \"01:47\"}, {\"routeId\": \"route:IDFM:RATP:107730-C01380-ITI_IDFM_C01380_R_-1976929239\", \"from\": \"Gare d'Austerlitz\", \"to\": \"Boulogne Pont de Saint-Cloud\", \"first\": \"05:30\", \"last\": \"01:41\"}]", "stop_id": "IDFM:21978", "stop_name": "Od\u00e9on", "stop_lon": "2.340619126473996", "stop_lat": "48.8519477060765", "operatorname": "RATP", "pointgeo": {"lon": 2.340619126473996, "lat": 48.8519477060765}, "nom_commune": "Paris", "code_insee": "75056"},{"id": "IDFM:C01380", "route_long_name": "10", "plans": "[{\"link\": \"https://www.ratp.fr/sites/default/files/lines-assets/plan-de-ligne/metro/plan-de-ligne_metro_ligne-10.pdf\", \"label\": \"Plan M\u00e9tro 10\"}]", "schedules": "[{\"routeId\": \"route:IDFM:RATP:107730-C01380-ITI_IDFM_C01380_A_-1374171964\", \"from\": \"Boulogne Pont de Saint-Cloud\", \"to\": \"Gare d'Austerlitz\", \"first\": \"05:35\", \"last\": \"01:47\"}, {\"routeId\": \"route:IDFM:RATP:107730-C01380-ITI_IDFM_C01380_R_-1976929239\", \"from\": \"Gare d'Austerlitz\", \"to\": \"Boulogne Pont de Saint-Cloud\", \"first\": \"05:30\", \"last\": \"01:41\"}]", "stop_id": "IDFM:462959", "stop_name": "Vaneau", "stop_lon": "2.3213512423547358", "stop_lat": "48.84889457005888", "operatorname": "RATP", "pointgeo": {"lon": 2.3213512423547358, "lat": 48.84889457005888}, "nom_commune": "Paris", "code_insee": "75056"},{"id": "IDFM:C01380", "route_long_name": "10", "plans": "[{\"link\": \"https://www.ratp.fr/sites/default/files/lines-assets/plan-de-ligne/metro/plan-de-ligne_metro_ligne-10.pdf\", \"label\": \"Plan M\u00e9tro 10\"}]", "schedules": "[{\"routeId\": \"route:IDFM:RATP:107730-C01380-ITI_IDFM_C01380_A_-1374171964\", \"from\": \"Boulogne Pont de Saint-Cloud\", \"to\": \"Gare d'Austerlitz\", \"first\": \"05:35\", \"last\": \"01:47\"}, {\"routeId\": \"route:IDFM:RATP:107730-C01380-ITI_IDFM_C01380_R_-1976929239\", \"from\": \"Gare d'Austerlitz\", \"to\": \"Boulogne Pont de Saint-Cloud\", \"first\": \"05:30\", \"last\": \"01:41\"}]", "stop_id": "IDFM:21971", "stop_name": "\u00c9glise d'Auteuil", "stop_lon": "2.2691113890218917", "stop_lat": "48.84714336145718", "operatorname": "RATP", "pointgeo": {"lon": 2.2691113890218917, "lat": 48.84714336145718}, "nom_commune": "Paris", "code_insee": "75056"},{"id": "IDFM:C01380", "route_long_name": "10", "plans": "[{\"link\": \"https://www.ratp.fr/sites/default/files/lines-assets/plan-de-ligne/metro/plan-de-ligne_metro_ligne-10.pdf\", \"label\": \"Plan M\u00e9tro 10\"}]", "schedules": "[{\"routeId\": \"route:IDFM:RATP:107730-C01380-ITI_IDFM_C01380_A_-1374171964\", \"from\": \"Boulogne Pont de Saint-Cloud\", \"to\": \"Gare d'Austerlitz\", \"first\": \"05:35\", \"last\": \"01:47\"}, {\"routeId\": \"route:IDFM:RATP:107730-C01380-ITI_IDFM_C01380_R_-1976929239\", \"from\": \"Gare d'Austerlitz\", \"to\": \"Boulogne Pont de Saint-Cloud\", \"first\": \"05:30\", \"last\": \"01:41\"}]", "stop_id": "IDFM:21989", "stop_name": "Boulogne Pont de Saint-Cloud", "stop_lon": "2.2283125898228056", "stop_lat": "48.84067248206251", "operatorname": "RATP", "pointgeo": {"lon": 2.2283125898228056, "lat": 48.84067248206251}, "nom_commune": "Boulogne-Billancourt", "code_insee": "92012"},{"id": "IDFM:C01380", "route_long_name": "10", "plans": "[{\"link\": \"https://www.ratp.fr/sites/default/files/lines-assets/plan-de-ligne/metro/plan-de-ligne_metro_ligne-10.pdf\", \"label\": \"Plan M\u00e9tro 10\"}]", "schedules": "[{\"routeId\": \"route:IDFM:RATP:107730-C01380-ITI_IDFM_C01380_A_-1374171964\", \"from\": \"Boulogne Pont de Saint-Cloud\", \"to\": \"Gare d'Austerlitz\", \"first\": \"05:35\", \"last\": \"01:47\"}, {\"routeId\": \"route:IDFM:RATP:107730-C01380-ITI_IDFM_C01380_R_-1976929239\", \"from\": \"Gare d'Austerlitz\", \"to\": \"Boulogne Pont de Saint-Cloud\", \"first\": \"05:30\", \"last\": \"01:41\"}]", "stop_id": "IDFM:21985", "stop_name": "Chardon Lagache", "stop_lon": "2.26690547594029", "stop_lat": "48.84508829917885", "operatorname": "RATP", "pointgeo": {"lon": 2.26690547594029, "lat": 48.84508829917885}, "nom_commune": "Paris", "code_insee": "75056"},{"id": "IDFM:C01380", "route_long_name": "10", "plans": "[{\"link\": \"https://www.ratp.fr/sites/default/files/lines-assets/plan-de-ligne/metro/plan-de-ligne_metro_ligne-10.pdf\", \"label\": \"Plan M\u00e9tro 10\"}]", "schedules": "[{\"routeId\": \"route:IDFM:RATP:107730-C01380-ITI_IDFM_C01380_A_-1374171964\", \"from\": \"Boulogne Pont de Saint-Cloud\", \"to\": \"Gare d'Austerlitz\", \"first\": \"05:35\", \"last\": \"01:47\"}, {\"routeId\": \"route:IDFM:RATP:107730-C01380-ITI_IDFM_C01380_R_-1976929239\", \"from\": \"Gare d'Austerlitz\", \"to\": \"Boulogne Pont de Saint-Cloud\", \"first\": \"05:30\", \"last\": \"01:41\"}]", "stop_id": "IDFM:21986", "stop_name": "Charles Michels", "stop_lon": "2.2856243417995747", "stop_lat": "48.84636172348247", "operatorname": "RATP", "pointgeo": {"lon": 2.2856243417995747, "lat": 48.84636172348247}, "nom_commune": "Paris", "code_insee": "75056"},{"id": "IDFM:C01380", "route_long_name": "10", "plans": "[{\"link\": \"https://www.ratp.fr/sites/default/files/lines-assets/plan-de-ligne/metro/plan-de-ligne_metro_ligne-10.pdf\", \"label\": \"Plan M\u00e9tro 10\"}]", "schedules": "[{\"routeId\": \"route:IDFM:RATP:107730-C01380-ITI_IDFM_C01380_A_-1374171964\", \"from\": \"Boulogne Pont de Saint-Cloud\", \"to\": \"Gare d'Austerlitz\", \"first\": \"05:35\", \"last\": \"01:47\"}, {\"routeId\": \"route:IDFM:RATP:107730-C01380-ITI_IDFM_C01380_R_-1976929239\", \"from\": \"Gare d'Austerlitz\", \"to\": \"Boulogne Pont de Saint-Cloud\", \"first\": \"05:30\", \"last\": \"01:41\"}]", "stop_id": "IDFM:463084", "stop_name": "Duroc", "stop_lon": "2.3162843486517035", "stop_lat": "48.84668027285166", "operatorname": "RATP", "pointgeo": {"lon": 2.3162843486517035, "lat": 48.84668027285166}, "nom_commune": "Paris", "code_insee": "75056"},{"id": "IDFM:C01380", "route_long_name": "10", "plans": "[{\"link\": \"https://www.ratp.fr/sites/default/files/lines-assets/plan-de-ligne/metro/plan-de-ligne_metro_ligne-10.pdf\", \"label\": \"Plan M\u00e9tro 10\"}]", "schedules": "[{\"routeId\": \"route:IDFM:RATP:107730-C01380-ITI_IDFM_C01380_A_-1374171964\", \"from\": \"Boulogne Pont de Saint-Cloud\", \"to\": \"Gare d'Austerlitz\", \"first\": \"05:35\", \"last\": \"01:47\"}, {\"routeId\": \"route:IDFM:RATP:107730-C01380-ITI_IDFM_C01380_R_-1976929239\", \"from\": \"Gare d'Austerlitz\", \"to\": \"Boulogne Pont de Saint-Cloud\", \"first\": \"05:30\", \"last\": \"01:41\"}]", "stop_id": "IDFM:21976", "stop_name": "S\u00e8vres - Babylone", "stop_lon": "2.326104689925573", "stop_lat": "48.85093150598804", "operatorname": "RATP", "pointgeo": {"lon": 2.326104689925573, "lat": 48.85093150598804}, "nom_commune": "Paris", "code_insee": "75056"},{"id": "IDFM:C01380", "route_long_name": "10", "plans": "[{\"link\": \"https://www.ratp.fr/sites/default/files/lines-assets/plan-de-ligne/metro/plan-de-ligne_metro_ligne-10.pdf\", \"label\": \"Plan M\u00e9tro 10\"}]", "schedules": "[{\"routeId\": \"route:IDFM:RATP:107730-C01380-ITI_IDFM_C01380_A_-1374171964\", \"from\": \"Boulogne Pont de Saint-Cloud\", \"to\": \"Gare d'Austerlitz\", \"first\": \"05:35\", \"last\": \"01:47\"}, {\"routeId\": \"route:IDFM:RATP:107730-C01380-ITI_IDFM_C01380_R_-1976929239\", \"from\": \"Gare d'Austerlitz\", \"to\": \"Boulogne Pont de Saint-Cloud\", \"first\": \"05:30\", \"last\": \"01:41\"}]", "stop_id": "IDFM:21984", "stop_name": "Cardinal Lemoine", "stop_lon": "2.3513280016731763", "stop_lat": "48.84670003526311", "operatorname": "RATP", "pointgeo": {"lon": 2.3513280016731763, "lat": 48.84670003526311}, "nom_commune": "Paris", "code_insee": "75056"},{"id": "IDFM:C01380", "route_long_name": "10", "plans": "[{\"link\": \"https://www.ratp.fr/sites/default/files/lines-assets/plan-de-ligne/metro/plan-de-ligne_metro_ligne-10.pdf\", \"label\": \"Plan M\u00e9tro 10\"}]", "schedules": "[{\"routeId\": \"route:IDFM:RATP:107730-C01380-ITI_IDFM_C01380_A_-1374171964\", \"from\": \"Boulogne Pont de Saint-Cloud\", \"to\": \"Gare d'Austerlitz\", \"first\": \"05:35\", \"last\": \"01:47\"}, {\"routeId\": \"route:IDFM:RATP:107730-C01380-ITI_IDFM_C01380_R_-1976929239\", \"from\": \"Gare d'Austerlitz\", \"to\": \"Boulogne Pont de Saint-Cloud\", \"first\": \"05:30\", \"last\": \"01:41\"}]", "stop_id": "IDFM:21968", "stop_name": "Jussieu", "stop_lon": "2.3549316718232256", "stop_lat": "48.846197891637004", "operatorname": "RATP", "pointgeo": {"lon": 2.3549316718232256, "lat": 48.846197891637004}, "nom_commune": "Paris", "code_insee": "75056"},{"id": "IDFM:C01380", "route_long_name": "10", "plans": "[{\"link\": \"https://www.ratp.fr/sites/default/files/lines-assets/plan-de-ligne/metro/plan-de-ligne_metro_ligne-10.pdf\", \"label\": \"Plan M\u00e9tro 10\"}]", "schedules": "[{\"routeId\": \"route:IDFM:RATP:107730-C01380-ITI_IDFM_C01380_A_-1374171964\", \"from\": \"Boulogne Pont de Saint-Cloud\", \"to\": \"Gare d'Austerlitz\", \"first\": \"05:35\", \"last\": \"01:47\"}, {\"routeId\": \"route:IDFM:RATP:107730-C01380-ITI_IDFM_C01380_R_-1976929239\", \"from\": \"Gare d'Austerlitz\", \"to\": \"Boulogne Pont de Saint-Cloud\", \"first\": \"05:30\", \"last\": \"01:41\"}]", "stop_id": "IDFM:463024", "stop_name": "Gare d'Austerlitz", "stop_lon": "2.364395394600644", "stop_lat": "48.84228236697996", "operatorname": "RATP", "pointgeo": {"lon": 2.364395394600644, "lat": 48.84228236697996}, "nom_commune": "Paris", "code_insee": "75056"},{"id": "IDFM:C01380", "route_long_name": "10", "plans": "[{\"link\": \"https://www.ratp.fr/sites/default/files/lines-assets/plan-de-ligne/metro/plan-de-ligne_metro_ligne-10.pdf\", \"label\": \"Plan M\u00e9tro 10\"}]", "schedules": "[{\"routeId\": \"route:IDFM:RATP:107730-C01380-ITI_IDFM_C01380_A_-1374171964\", \"from\": \"Boulogne Pont de Saint-Cloud\", \"to\": \"Gare d'Austerlitz\", \"first\": \"05:35\", \"last\": \"01:47\"}, {\"routeId\": \"route:IDFM:RATP:107730-C01380-ITI_IDFM_C01380_R_-1976929239\", \"from\": \"Gare d'Austerlitz\", \"to\": \"Boulogne Pont de Saint-Cloud\", \"first\": \"05:30\", \"last\": \"01:41\"}]", "stop_id": "IDFM:21979", "stop_name": "S\u00e9gur", "stop_lon": "2.3072520746428715", "stop_lat": "48.847226390053955", "operatorname": "RATP", "pointgeo": {"lon": 2.3072520746428715, "lat": 48.847226390053955}, "nom_commune": "Paris", "code_insee": "75056"},{"id": "IDFM:C01380", "route_long_name": "10", "plans": "[{\"link\": \"https://www.ratp.fr/sites/default/files/lines-assets/plan-de-ligne/metro/plan-de-ligne_metro_ligne-10.pdf\", \"label\": \"Plan M\u00e9tro 10\"}]", "schedules": "[{\"routeId\": \"route:IDFM:RATP:107730-C01380-ITI_IDFM_C01380_A_-1374171964\", \"from\": \"Boulogne Pont de Saint-Cloud\", \"to\": \"Gare d'Austerlitz\", \"first\": \"05:35\", \"last\": \"01:47\"}, {\"routeId\": \"route:IDFM:RATP:107730-C01380-ITI_IDFM_C01380_R_-1976929239\", \"from\": \"Gare d'Austerlitz\", \"to\": \"Boulogne Pont de Saint-Cloud\", \"first\": \"05:30\", \"last\": \"01:41\"}]", "stop_id": "IDFM:21988", "stop_name": "Boulogne Jean Jaur\u00e8s", "stop_lon": "2.239042669312605", "stop_lat": "48.842063301935575", "operatorname": "RATP", "pointgeo": {"lon": 2.239042669312605, "lat": 48.842063301935575}, "nom_commune": "Boulogne-Billancourt", "code_insee": "92012"},{"id": "IDFM:C01380", "route_long_name": "10", "plans": "[{\"link\": \"https://www.ratp.fr/sites/default/files/lines-assets/plan-de-ligne/metro/plan-de-ligne_metro_ligne-10.pdf\", \"label\": \"Plan M\u00e9tro 10\"}]", "schedules": "[{\"routeId\": \"route:IDFM:RATP:107730-C01380-ITI_IDFM_C01380_A_-1374171964\", \"from\": \"Boulogne Pont de Saint-Cloud\", \"to\": \"Gare d'Austerlitz\", \"first\": \"05:35\", \"last\": \"01:47\"}, {\"routeId\": \"route:IDFM:RATP:107730-C01380-ITI_IDFM_C01380_R_-1976929239\", \"from\": \"Gare d'Austerlitz\", \"to\": \"Boulogne Pont de Saint-Cloud\", \"first\": \"05:30\", \"last\": \"01:41\"}]", "stop_id": "IDFM:462958", "stop_name": "Javel - Andr\u00e9 Citro\u00ebn", "stop_lon": "2.2780435059854063", "stop_lat": "48.846086877931405", "operatorname": "RATP", "pointgeo": {"lon": 2.2780435059854063, "lat": 48.846086877931405}, "nom_commune": "Paris", "code_insee": "75056"},{"id": "IDFM:C01380", "route_long_name": "10", "plans": "[{\"link\": \"https://www.ratp.fr/sites/default/files/lines-assets/plan-de-ligne/metro/plan-de-ligne_metro_ligne-10.pdf\", \"label\": \"Plan M\u00e9tro 10\"}]", "schedules": "[{\"routeId\": \"route:IDFM:RATP:107730-C01380-ITI_IDFM_C01380_A_-1374171964\", \"from\": \"Boulogne Pont de Saint-Cloud\", \"to\": \"Gare d'Austerlitz\", \"first\": \"05:35\", \"last\": \"01:47\"}, {\"routeId\": \"route:IDFM:RATP:107730-C01380-ITI_IDFM_C01380_R_-1976929239\", \"from\": \"Gare d'Austerlitz\", \"to\": \"Boulogne Pont de Saint-Cloud\", \"first\": \"05:30\", \"last\": \"01:41\"}]", "stop_id": "IDFM:463202", "stop_name": "La Motte-Picquet - Grenelle", "stop_lon": "2.298684579816939", "stop_lat": "48.849532805857095", "operatorname": "RATP", "pointgeo": {"lon": 2.298684579816939, "lat": 48.849532805857095}, "nom_commune": "Paris", "code_insee": "75056"},{"id": "IDFM:C01380", "route_long_name": "10", "plans": "[{\"link\": \"https://www.ratp.fr/sites/default/files/lines-assets/plan-de-ligne/metro/plan-de-ligne_metro_ligne-10.pdf\", \"label\": \"Plan M\u00e9tro 10\"}]", "schedules": "[{\"routeId\": \"route:IDFM:RATP:107730-C01380-ITI_IDFM_C01380_A_-1374171964\", \"from\": \"Boulogne Pont de Saint-Cloud\", \"to\": \"Gare d'Austerlitz\", \"first\": \"05:35\", \"last\": \"01:47\"}, {\"routeId\": \"route:IDFM:RATP:107730-C01380-ITI_IDFM_C01380_R_-1976929239\", \"from\": \"Gare d'Austerlitz\", \"to\": \"Boulogne Pont de Saint-Cloud\", \"first\": \"05:30\", \"last\": \"01:41\"}]", "stop_id": "IDFM:463077", "stop_name": "Jussieu", "stop_lon": "2.354944184375758", "stop_lat": "48.8462878950311", "operatorname": "RATP", "pointgeo": {"lon": 2.354944184375758, "lat": 48.8462878950311}, "nom_commune": "Paris", "code_insee": "75056"},{"id": "IDFM:C01380", "route_long_name": "10", "plans": "[{\"link\": \"https://www.ratp.fr/sites/default/files/lines-assets/plan-de-ligne/metro/plan-de-ligne_metro_ligne-10.pdf\", \"label\": \"Plan M\u00e9tro 10\"}]", "schedules": "[{\"routeId\": \"route:IDFM:RATP:107730-C01380-ITI_IDFM_C01380_A_-1374171964\", \"from\": \"Boulogne Pont de Saint-Cloud\", \"to\": \"Gare d'Austerlitz\", \"first\": \"05:35\", \"last\": \"01:47\"}, {\"routeId\": \"route:IDFM:RATP:107730-C01380-ITI_IDFM_C01380_R_-1976929239\", \"from\": \"Gare d'Austerlitz\", \"to\": \"Boulogne Pont de Saint-Cloud\", \"first\": \"05:30\", \"last\": \"01:41\"}]", "stop_id": "IDFM:463141", "stop_name": "Cardinal Lemoine", "stop_lon": "2.3513280016731763", "stop_lat": "48.84670003526311", "operatorname": "RATP", "pointgeo": {"lon": 2.3513280016731763, "lat": 48.84670003526311}, "nom_commune": "Paris", "code_insee": "75056"},{"id": "IDFM:C01380", "route_long_name": "10", "plans": "[{\"link\": \"https://www.ratp.fr/sites/default/files/lines-assets/plan-de-ligne/metro/plan-de-ligne_metro_ligne-10.pdf\", \"label\": \"Plan M\u00e9tro 10\"}]", "schedules": "[{\"routeId\": \"route:IDFM:RATP:107730-C01380-ITI_IDFM_C01380_A_-1374171964\", \"from\": \"Boulogne Pont de Saint-Cloud\", \"to\": \"Gare d'Austerlitz\", \"first\": \"05:35\", \"last\": \"01:47\"}, {\"routeId\": \"route:IDFM:RATP:107730-C01380-ITI_IDFM_C01380_R_-1976929239\", \"from\": \"Gare d'Austerlitz\", \"to\": \"Boulogne Pont de Saint-Cloud\", \"first\": \"05:30\", \"last\": \"01:41\"}]", "stop_id": "IDFM:463237", "stop_name": "Maubert - Mutualit\u00e9", "stop_lon": "2.3482804131694897", "stop_lat": "48.85019546606951", "operatorname": "RATP", "pointgeo": {"lon": 2.3482804131694897, "lat": 48.85019546606951}, "nom_commune": "Paris", "code_insee": "75056"},{"id": "IDFM:C01380", "route_long_name": "10", "plans": "[{\"link\": \"https://www.ratp.fr/sites/default/files/lines-assets/plan-de-ligne/metro/plan-de-ligne_metro_ligne-10.pdf\", \"label\": \"Plan M\u00e9tro 10\"}]", "schedules": "[{\"routeId\": \"route:IDFM:RATP:107730-C01380-ITI_IDFM_C01380_A_-1374171964\", \"from\": \"Boulogne Pont de Saint-Cloud\", \"to\": \"Gare d'Austerlitz\", \"first\": \"05:35\", \"last\": \"01:47\"}, {\"routeId\": \"route:IDFM:RATP:107730-C01380-ITI_IDFM_C01380_R_-1976929239\", \"from\": \"Gare d'Austerlitz\", \"to\": \"Boulogne Pont de Saint-Cloud\", \"first\": \"05:30\", \"last\": \"01:41\"}]", "stop_id": "IDFM:462994", "stop_name": "Mabillon", "stop_lon": "2.3350868179946915", "stop_lat": "48.85296034336302", "operatorname": "RATP", "pointgeo": {"lon": 2.3350868179946915, "lat": 48.85296034336302}, "nom_commune": "Paris", "code_insee": "75056"},{"id": "IDFM:C01380", "route_long_name": "10", "plans": "[{\"link\": \"https://www.ratp.fr/sites/default/files/lines-assets/plan-de-ligne/metro/plan-de-ligne_metro_ligne-10.pdf\", \"label\": \"Plan M\u00e9tro 10\"}]", "schedules": "[{\"routeId\": \"route:IDFM:RATP:107730-C01380-ITI_IDFM_C01380_A_-1374171964\", \"from\": \"Boulogne Pont de Saint-Cloud\", \"to\": \"Gare d'Austerlitz\", \"first\": \"05:35\", \"last\": \"01:47\"}, {\"routeId\": \"route:IDFM:RATP:107730-C01380-ITI_IDFM_C01380_R_-1976929239\", \"from\": \"Gare d'Austerlitz\", \"to\": \"Boulogne Pont de Saint-Cloud\", \"first\": \"05:30\", \"last\": \"01:41\"}]", "stop_id": "IDFM:21969", "stop_name": "La Motte-Picquet - Grenelle", "stop_lon": "2.2985257262366363", "stop_lat": "48.84963080443241", "operatorname": "RATP", "pointgeo": {"lon": 2.2985257262366363, "lat": 48.84963080443241}, "nom_commune": "Paris", "code_insee": "75056"},{"id": "IDFM:C01380", "route_long_name": "10", "plans": "[{\"link\": \"https://www.ratp.fr/sites/default/files/lines-assets/plan-de-ligne/metro/plan-de-ligne_metro_ligne-10.pdf\", \"label\": \"Plan M\u00e9tro 10\"}]", "schedules": "[{\"routeId\": \"route:IDFM:RATP:107730-C01380-ITI_IDFM_C01380_A_-1374171964\", \"from\": \"Boulogne Pont de Saint-Cloud\", \"to\": \"Gare d'Austerlitz\", \"first\": \"05:35\", \"last\": \"01:47\"}, {\"routeId\": \"route:IDFM:RATP:107730-C01380-ITI_IDFM_C01380_R_-1976929239\", \"from\": \"Gare d'Austerlitz\", \"to\": \"Boulogne Pont de Saint-Cloud\", \"first\": \"05:30\", \"last\": \"01:41\"}]", "stop_id": "IDFM:463124", "stop_name": "Avenue \u00c9mile Zola", "stop_lon": "2.2950189971435506", "stop_lat": "48.84703801370517", "operatorname": "RATP", "pointgeo": {"lon": 2.2950189971435506, "lat": 48.84703801370517}, "nom_commune": "Paris", "code_insee": "75056"}]