[{"id": "IDFM:C01379", "route_long_name": "9", "plans": "[{\"link\": \"https://www.ratp.fr/sites/default/files/lines-assets/plan-de-ligne/metro/plan-de-ligne_metro_ligne-9.pdf\", \"label\": \"Plan M\u00e9tro 9\"}]", "schedules": "[{\"routeId\": \"route:IDFM:RATP:566-C01379-2444066\", \"from\": \"Pont de S\u00e8vres\", \"to\": \"Mairie de Montreuil\", \"first\": \"05:30\", \"last\": \"01:26\"}, {\"routeId\": \"route:IDFM:RATP:566-C01379-2444067\", \"from\": \"Mairie de Montreuil\", \"to\": \"Pont de S\u00e8vres\", \"first\": \"05:30\", \"last\": \"01:32\"}]", "stop_id": "IDFM:462942", "stop_name": "Nation", "stop_lon": "2.395921369214201", "stop_lat": "48.848979537674516", "operatorname": "RATP", "pointgeo": {"lon": 2.395921369214201, "lat": 48.848979537674516}, "nom_commune": "Paris", "code_insee": "75056"},{"id": "IDFM:C01379", "route_long_name": "9", "plans": "[{\"link\": \"https://www.ratp.fr/sites/default/files/lines-assets/plan-de-ligne/metro/plan-de-ligne_metro_ligne-9.pdf\", \"label\": \"Plan M\u00e9tro 9\"}]", "schedules": "[{\"routeId\": \"route:IDFM:RATP:566-C01379-2444066\", \"from\": \"Pont de S\u00e8vres\", \"to\": \"Mairie de Montreuil\", \"first\": \"05:30\", \"last\": \"01:26\"}, {\"routeId\": \"route:IDFM:RATP:566-C01379-2444067\", \"from\": \"Mairie de Montreuil\", \"to\": \"Pont de S\u00e8vres\", \"first\": \"05:30\", \"last\": \"01:32\"}]", "stop_id": "IDFM:463298", "stop_name": "Rue des Boulets", "stop_lon": "2.389429968854563", "stop_lat": "48.85236862327955", "operatorname": "RATP", "pointgeo": {"lon": 2.389429968854563, "lat": 48.85236862327955}, "nom_commune": "Paris", "code_insee": "75056"},{"id": "IDFM:C01379", "route_long_name": "9", "plans": "[{\"link\": \"https://www.ratp.fr/sites/default/files/lines-assets/plan-de-ligne/metro/plan-de-ligne_metro_ligne-9.pdf\", \"label\": \"Plan M\u00e9tro 9\"}]", "schedules": "[{\"routeId\": \"route:IDFM:RATP:566-C01379-2444066\", \"from\": \"Pont de S\u00e8vres\", \"to\": \"Mairie de Montreuil\", \"first\": \"05:30\", \"last\": \"01:26\"}, {\"routeId\": \"route:IDFM:RATP:566-C01379-2444067\", \"from\": \"Mairie de Montreuil\", \"to\": \"Pont de S\u00e8vres\", \"first\": \"05:30\", \"last\": \"01:32\"}]", "stop_id": "IDFM:463188", "stop_name": "Havre-Caumartin", "stop_lon": "2.327677208279404", "stop_lat": "48.8737568325288", "operatorname": "RATP", "pointgeo": {"lon": 2.327677208279404, "lat": 48.8737568325288}, "nom_commune": "Paris", "code_insee": "75056"},{"id": "IDFM:C01379", "route_long_name": "9", "plans": "[{\"link\": \"https://www.ratp.fr/sites/default/files/lines-assets/plan-de-ligne/metro/plan-de-ligne_metro_ligne-9.pdf\", \"label\": \"Plan M\u00e9tro 9\"}]", "schedules": "[{\"routeId\": \"route:IDFM:RATP:566-C01379-2444066\", \"from\": \"Pont de S\u00e8vres\", \"to\": \"Mairie de Montreuil\", \"first\": \"05:30\", \"last\": \"01:26\"}, {\"routeId\": \"route:IDFM:RATP:566-C01379-2444067\", \"from\": \"Mairie de Montreuil\", \"to\": \"Pont de S\u00e8vres\", \"first\": \"05:30\", \"last\": \"01:32\"}]", "stop_id": "IDFM:463055", "stop_name": "Rue de la Pompe", "stop_lon": "2.277916063289398", "stop_lat": "48.86403732937509", "operatorname": "RATP", "pointgeo": {"lon": 2.277916063289398, "lat": 48.86403732937509}, "nom_commune": "Paris", "code_insee": "75056"},{"id": "IDFM:C01379", "route_long_name": "9", "plans": "[{\"link\": \"https://www.ratp.fr/sites/default/files/lines-assets/plan-de-ligne/metro/plan-de-ligne_metro_ligne-9.pdf\", \"label\": \"Plan M\u00e9tro 9\"}]", "schedules": "[{\"routeId\": \"route:IDFM:RATP:566-C01379-2444066\", \"from\": \"Pont de S\u00e8vres\", \"to\": \"Mairie de Montreuil\", \"first\": \"05:30\", \"last\": \"01:26\"}, {\"routeId\": \"route:IDFM:RATP:566-C01379-2444067\", \"from\": \"Mairie de Montreuil\", \"to\": \"Pont de S\u00e8vres\", \"first\": \"05:30\", \"last\": \"01:32\"}]", "stop_id": "IDFM:463038", "stop_name": "Jasmin", "stop_lon": "2.267933291647067", "stop_lat": "48.85243341872557", "operatorname": "RATP", "pointgeo": {"lon": 2.267933291647067, "lat": 48.85243341872557}, "nom_commune": "Paris", "code_insee": "75056"},{"id": "IDFM:C01379", "route_long_name": "9", "plans": "[{\"link\": \"https://www.ratp.fr/sites/default/files/lines-assets/plan-de-ligne/metro/plan-de-ligne_metro_ligne-9.pdf\", \"label\": \"Plan M\u00e9tro 9\"}]", "schedules": "[{\"routeId\": \"route:IDFM:RATP:566-C01379-2444066\", \"from\": \"Pont de S\u00e8vres\", \"to\": \"Mairie de Montreuil\", \"first\": \"05:30\", \"last\": \"01:26\"}, {\"routeId\": \"route:IDFM:RATP:566-C01379-2444067\", \"from\": \"Mairie de Montreuil\", \"to\": \"Pont de S\u00e8vres\", \"first\": \"05:30\", \"last\": \"01:32\"}]", "stop_id": "IDFM:463238", "stop_name": "Michel-Ange - Auteuil", "stop_lon": "2.2638093220226634", "stop_lat": "48.84770893216831", "operatorname": "RATP", "pointgeo": {"lon": 2.2638093220226634, "lat": 48.84770893216831}, "nom_commune": "Paris", "code_insee": "75056"},{"id": "IDFM:C01379", "route_long_name": "9", "plans": "[{\"link\": \"https://www.ratp.fr/sites/default/files/lines-assets/plan-de-ligne/metro/plan-de-ligne_metro_ligne-9.pdf\", \"label\": \"Plan M\u00e9tro 9\"}]", "schedules": "[{\"routeId\": \"route:IDFM:RATP:566-C01379-2444066\", \"from\": \"Pont de S\u00e8vres\", \"to\": \"Mairie de Montreuil\", \"first\": \"05:30\", \"last\": \"01:26\"}, {\"routeId\": \"route:IDFM:RATP:566-C01379-2444067\", \"from\": \"Mairie de Montreuil\", \"to\": \"Pont de S\u00e8vres\", \"first\": \"05:30\", \"last\": \"01:32\"}]", "stop_id": "IDFM:21938", "stop_name": "Pont de S\u00e8vres", "stop_lon": "2.2305185727726955", "stop_lat": "48.82968726438348", "operatorname": "RATP", "pointgeo": {"lon": 2.2305185727726955, "lat": 48.82968726438348}, "nom_commune": "Boulogne-Billancourt", "code_insee": "92012"},{"id": "IDFM:C01379", "route_long_name": "9", "plans": "[{\"link\": \"https://www.ratp.fr/sites/default/files/lines-assets/plan-de-ligne/metro/plan-de-ligne_metro_ligne-9.pdf\", \"label\": \"Plan M\u00e9tro 9\"}]", "schedules": "[{\"routeId\": \"route:IDFM:RATP:566-C01379-2444066\", \"from\": \"Pont de S\u00e8vres\", \"to\": \"Mairie de Montreuil\", \"first\": \"05:30\", \"last\": \"01:26\"}, {\"routeId\": \"route:IDFM:RATP:566-C01379-2444067\", \"from\": \"Mairie de Montreuil\", \"to\": \"Pont de S\u00e8vres\", \"first\": \"05:30\", \"last\": \"01:32\"}]", "stop_id": "IDFM:21914", "stop_name": "Porte de Saint-Cloud", "stop_lon": "2.2570461929221506", "stop_lat": "48.83795840561949", "operatorname": "RATP", "pointgeo": {"lon": 2.2570461929221506, "lat": 48.83795840561949}, "nom_commune": "Paris", "code_insee": "75056"},{"id": "IDFM:C01379", "route_long_name": "9", "plans": "[{\"link\": \"https://www.ratp.fr/sites/default/files/lines-assets/plan-de-ligne/metro/plan-de-ligne_metro_ligne-9.pdf\", \"label\": \"Plan M\u00e9tro 9\"}]", "schedules": "[{\"routeId\": \"route:IDFM:RATP:566-C01379-2444066\", \"from\": \"Pont de S\u00e8vres\", \"to\": \"Mairie de Montreuil\", \"first\": \"05:30\", \"last\": \"01:26\"}, {\"routeId\": \"route:IDFM:RATP:566-C01379-2444067\", \"from\": \"Mairie de Montreuil\", \"to\": \"Pont de S\u00e8vres\", \"first\": \"05:30\", \"last\": \"01:32\"}]", "stop_id": "IDFM:21928", "stop_name": "Jasmin", "stop_lon": "2.268219083521012", "stop_lat": "48.852462147844555", "operatorname": "RATP", "pointgeo": {"lon": 2.268219083521012, "lat": 48.852462147844555}, "nom_commune": "Paris", "code_insee": "75056"},{"id": "IDFM:C01379", "route_long_name": "9", "plans": "[{\"link\": \"https://www.ratp.fr/sites/default/files/lines-assets/plan-de-ligne/metro/plan-de-ligne_metro_ligne-9.pdf\", \"label\": \"Plan M\u00e9tro 9\"}]", "schedules": "[{\"routeId\": \"route:IDFM:RATP:566-C01379-2444066\", \"from\": \"Pont de S\u00e8vres\", \"to\": \"Mairie de Montreuil\", \"first\": \"05:30\", \"last\": \"01:26\"}, {\"routeId\": \"route:IDFM:RATP:566-C01379-2444067\", \"from\": \"Mairie de Montreuil\", \"to\": \"Pont de S\u00e8vres\", \"first\": \"05:30\", \"last\": \"01:32\"}]", "stop_id": "IDFM:21908", "stop_name": "Rue de la Pompe", "stop_lon": "2.2778858979590564", "stop_lat": "48.863951708879945", "operatorname": "RATP", "pointgeo": {"lon": 2.2778858979590564, "lat": 48.863951708879945}, "nom_commune": "Paris", "code_insee": "75056"},{"id": "IDFM:C01379", "route_long_name": "9", "plans": "[{\"link\": \"https://www.ratp.fr/sites/default/files/lines-assets/plan-de-ligne/metro/plan-de-ligne_metro_ligne-9.pdf\", \"label\": \"Plan M\u00e9tro 9\"}]", "schedules": "[{\"routeId\": \"route:IDFM:RATP:566-C01379-2444066\", \"from\": \"Pont de S\u00e8vres\", \"to\": \"Mairie de Montreuil\", \"first\": \"05:30\", \"last\": \"01:26\"}, {\"routeId\": \"route:IDFM:RATP:566-C01379-2444067\", \"from\": \"Mairie de Montreuil\", \"to\": \"Pont de S\u00e8vres\", \"first\": \"05:30\", \"last\": \"01:32\"}]", "stop_id": "IDFM:463180", "stop_name": "Franklin D. Roosevelt", "stop_lon": "2.3095735420193506", "stop_lat": "48.86866242617973", "operatorname": "RATP", "pointgeo": {"lon": 2.3095735420193506, "lat": 48.86866242617973}, "nom_commune": "Paris", "code_insee": "75056"},{"id": "IDFM:C01379", "route_long_name": "9", "plans": "[{\"link\": \"https://www.ratp.fr/sites/default/files/lines-assets/plan-de-ligne/metro/plan-de-ligne_metro_ligne-9.pdf\", \"label\": \"Plan M\u00e9tro 9\"}]", "schedules": "[{\"routeId\": \"route:IDFM:RATP:566-C01379-2444066\", \"from\": \"Pont de S\u00e8vres\", \"to\": \"Mairie de Montreuil\", \"first\": \"05:30\", \"last\": \"01:26\"}, {\"routeId\": \"route:IDFM:RATP:566-C01379-2444067\", \"from\": \"Mairie de Montreuil\", \"to\": \"Pont de S\u00e8vres\", \"first\": \"05:30\", \"last\": \"01:32\"}]", "stop_id": "IDFM:462957", "stop_name": "Miromesnil", "stop_lon": "2.3146768238242688", "stop_lat": "48.87369210197914", "operatorname": "RATP", "pointgeo": {"lon": 2.3146768238242688, "lat": 48.87369210197914}, "nom_commune": "Paris", "code_insee": "75056"},{"id": "IDFM:C01379", "route_long_name": "9", "plans": "[{\"link\": \"https://www.ratp.fr/sites/default/files/lines-assets/plan-de-ligne/metro/plan-de-ligne_metro_ligne-9.pdf\", \"label\": \"Plan M\u00e9tro 9\"}]", "schedules": "[{\"routeId\": \"route:IDFM:RATP:566-C01379-2444066\", \"from\": \"Pont de S\u00e8vres\", \"to\": \"Mairie de Montreuil\", \"first\": \"05:30\", \"last\": \"01:26\"}, {\"routeId\": \"route:IDFM:RATP:566-C01379-2444067\", \"from\": \"Mairie de Montreuil\", \"to\": \"Pont de S\u00e8vres\", \"first\": \"05:30\", \"last\": \"01:32\"}]", "stop_id": "IDFM:463133", "stop_name": "Bonne Nouvelle", "stop_lon": "2.348428667867017", "stop_lat": "48.87049007203075", "operatorname": "RATP", "pointgeo": {"lon": 2.348428667867017, "lat": 48.87049007203075}, "nom_commune": "Paris", "code_insee": "75056"},{"id": "IDFM:C01379", "route_long_name": "9", "plans": "[{\"link\": \"https://www.ratp.fr/sites/default/files/lines-assets/plan-de-ligne/metro/plan-de-ligne_metro_ligne-9.pdf\", \"label\": \"Plan M\u00e9tro 9\"}]", "schedules": "[{\"routeId\": \"route:IDFM:RATP:566-C01379-2444066\", \"from\": \"Pont de S\u00e8vres\", \"to\": \"Mairie de Montreuil\", \"first\": \"05:30\", \"last\": \"01:26\"}, {\"routeId\": \"route:IDFM:RATP:566-C01379-2444067\", \"from\": \"Mairie de Montreuil\", \"to\": \"Pont de S\u00e8vres\", \"first\": \"05:30\", \"last\": \"01:32\"}]", "stop_id": "IDFM:21925", "stop_name": "Oberkampf", "stop_lon": "2.3681558453945515", "stop_lat": "48.86477709852134", "operatorname": "RATP", "pointgeo": {"lon": 2.3681558453945515, "lat": 48.86477709852134}, "nom_commune": "Paris", "code_insee": "75056"},{"id": "IDFM:C01379", "route_long_name": "9", "plans": "[{\"link\": \"https://www.ratp.fr/sites/default/files/lines-assets/plan-de-ligne/metro/plan-de-ligne_metro_ligne-9.pdf\", \"label\": \"Plan M\u00e9tro 9\"}]", "schedules": "[{\"routeId\": \"route:IDFM:RATP:566-C01379-2444066\", \"from\": \"Pont de S\u00e8vres\", \"to\": \"Mairie de Montreuil\", \"first\": \"05:30\", \"last\": \"01:26\"}, {\"routeId\": \"route:IDFM:RATP:566-C01379-2444067\", \"from\": \"Mairie de Montreuil\", \"to\": \"Pont de S\u00e8vres\", \"first\": \"05:30\", \"last\": \"01:32\"}]", "stop_id": "IDFM:22442", "stop_name": "Rue des Boulets", "stop_lon": "2.3891047050322425", "stop_lat": "48.85221407333194", "operatorname": "RATP", "pointgeo": {"lon": 2.3891047050322425, "lat": 48.85221407333194}, "nom_commune": "Paris", "code_insee": "75056"},{"id": "IDFM:C01379", "route_long_name": "9", "plans": "[{\"link\": \"https://www.ratp.fr/sites/default/files/lines-assets/plan-de-ligne/metro/plan-de-ligne_metro_ligne-9.pdf\", \"label\": \"Plan M\u00e9tro 9\"}]", "schedules": "[{\"routeId\": \"route:IDFM:RATP:566-C01379-2444066\", \"from\": \"Pont de S\u00e8vres\", \"to\": \"Mairie de Montreuil\", \"first\": \"05:30\", \"last\": \"01:26\"}, {\"routeId\": \"route:IDFM:RATP:566-C01379-2444067\", \"from\": \"Mairie de Montreuil\", \"to\": \"Pont de S\u00e8vres\", \"first\": \"05:30\", \"last\": \"01:32\"}]", "stop_id": "IDFM:463039", "stop_name": "Buzenval", "stop_lon": "2.401170769368413", "stop_lat": "48.85176243983227", "operatorname": "RATP", "pointgeo": {"lon": 2.401170769368413, "lat": 48.85176243983227}, "nom_commune": "Paris", "code_insee": "75056"},{"id": "IDFM:C01379", "route_long_name": "9", "plans": "[{\"link\": \"https://www.ratp.fr/sites/default/files/lines-assets/plan-de-ligne/metro/plan-de-ligne_metro_ligne-9.pdf\", \"label\": \"Plan M\u00e9tro 9\"}]", "schedules": "[{\"routeId\": \"route:IDFM:RATP:566-C01379-2444066\", \"from\": \"Pont de S\u00e8vres\", \"to\": \"Mairie de Montreuil\", \"first\": \"05:30\", \"last\": \"01:26\"}, {\"routeId\": \"route:IDFM:RATP:566-C01379-2444067\", \"from\": \"Mairie de Montreuil\", \"to\": \"Pont de S\u00e8vres\", \"first\": \"05:30\", \"last\": \"01:32\"}]", "stop_id": "IDFM:21942", "stop_name": "Robespierre", "stop_lon": "2.4229730864963517", "stop_lat": "48.855673808550314", "operatorname": "RATP", "pointgeo": {"lon": 2.4229730864963517, "lat": 48.855673808550314}, "nom_commune": "Montreuil", "code_insee": "93048"},{"id": "IDFM:C01379", "route_long_name": "9", "plans": "[{\"link\": \"https://www.ratp.fr/sites/default/files/lines-assets/plan-de-ligne/metro/plan-de-ligne_metro_ligne-9.pdf\", \"label\": \"Plan M\u00e9tro 9\"}]", "schedules": "[{\"routeId\": \"route:IDFM:RATP:566-C01379-2444066\", \"from\": \"Pont de S\u00e8vres\", \"to\": \"Mairie de Montreuil\", \"first\": \"05:30\", \"last\": \"01:26\"}, {\"routeId\": \"route:IDFM:RATP:566-C01379-2444067\", \"from\": \"Mairie de Montreuil\", \"to\": \"Pont de S\u00e8vres\", \"first\": \"05:30\", \"last\": \"01:32\"}]", "stop_id": "IDFM:21941", "stop_name": "Mairie de Montreuil", "stop_lon": "2.4418193772459085", "stop_lat": "48.8622744369706", "operatorname": "RATP", "pointgeo": {"lon": 2.4418193772459085, "lat": 48.8622744369706}, "nom_commune": "Montreuil", "code_insee": "93048"},{"id": "IDFM:C01379", "route_long_name": "9", "plans": "[{\"link\": \"https://www.ratp.fr/sites/default/files/lines-assets/plan-de-ligne/metro/plan-de-ligne_metro_ligne-9.pdf\", \"label\": \"Plan M\u00e9tro 9\"}]", "schedules": "[{\"routeId\": \"route:IDFM:RATP:566-C01379-2444066\", \"from\": \"Pont de S\u00e8vres\", \"to\": \"Mairie de Montreuil\", \"first\": \"05:30\", \"last\": \"01:26\"}, {\"routeId\": \"route:IDFM:RATP:566-C01379-2444067\", \"from\": \"Mairie de Montreuil\", \"to\": \"Pont de S\u00e8vres\", \"first\": \"05:30\", \"last\": \"01:32\"}]", "stop_id": "IDFM:463176", "stop_name": "Croix de Chavaux", "stop_lon": "2.4358546126745826", "stop_lat": "48.857992585158016", "operatorname": "RATP", "pointgeo": {"lon": 2.4358546126745826, "lat": 48.857992585158016}, "nom_commune": "Montreuil", "code_insee": "93048"},{"id": "IDFM:C01379", "route_long_name": "9", "plans": "[{\"link\": \"https://www.ratp.fr/sites/default/files/lines-assets/plan-de-ligne/metro/plan-de-ligne_metro_ligne-9.pdf\", \"label\": \"Plan M\u00e9tro 9\"}]", "schedules": "[{\"routeId\": \"route:IDFM:RATP:566-C01379-2444066\", \"from\": \"Pont de S\u00e8vres\", \"to\": \"Mairie de Montreuil\", \"first\": \"05:30\", \"last\": \"01:26\"}, {\"routeId\": \"route:IDFM:RATP:566-C01379-2444067\", \"from\": \"Mairie de Montreuil\", \"to\": \"Pont de S\u00e8vres\", \"first\": \"05:30\", \"last\": \"01:32\"}]", "stop_id": "IDFM:463053", "stop_name": "Robespierre", "stop_lon": "2.4229449336324724", "stop_lat": "48.855754613895044", "operatorname": "RATP", "pointgeo": {"lon": 2.4229449336324724, "lat": 48.855754613895044}, "nom_commune": "Montreuil", "code_insee": "93048"},{"id": "IDFM:C01379", "route_long_name": "9", "plans": "[{\"link\": \"https://www.ratp.fr/sites/default/files/lines-assets/plan-de-ligne/metro/plan-de-ligne_metro_ligne-9.pdf\", \"label\": \"Plan M\u00e9tro 9\"}]", "schedules": "[{\"routeId\": \"route:IDFM:RATP:566-C01379-2444066\", \"from\": \"Pont de S\u00e8vres\", \"to\": \"Mairie de Montreuil\", \"first\": \"05:30\", \"last\": \"01:26\"}, {\"routeId\": \"route:IDFM:RATP:566-C01379-2444067\", \"from\": \"Mairie de Montreuil\", \"to\": \"Pont de S\u00e8vres\", \"first\": \"05:30\", \"last\": \"01:32\"}]", "stop_id": "IDFM:21913", "stop_name": "Porte de Montreuil", "stop_lon": "2.4107036110235414", "stop_lat": "48.853563500943025", "operatorname": "RATP", "pointgeo": {"lon": 2.4107036110235414, "lat": 48.853563500943025}, "nom_commune": "Paris", "code_insee": "75056"},{"id": "IDFM:C01379", "route_long_name": "9", "plans": "[{\"link\": \"https://www.ratp.fr/sites/default/files/lines-assets/plan-de-ligne/metro/plan-de-ligne_metro_ligne-9.pdf\", \"label\": \"Plan M\u00e9tro 9\"}]", "schedules": "[{\"routeId\": \"route:IDFM:RATP:566-C01379-2444066\", \"from\": \"Pont de S\u00e8vres\", \"to\": \"Mairie de Montreuil\", \"first\": \"05:30\", \"last\": \"01:26\"}, {\"routeId\": \"route:IDFM:RATP:566-C01379-2444067\", \"from\": \"Mairie de Montreuil\", \"to\": \"Pont de S\u00e8vres\", \"first\": \"05:30\", \"last\": \"01:32\"}]", "stop_id": "IDFM:21934", "stop_name": "Charonne", "stop_lon": "2.3848878986690423", "stop_lat": "48.85500743705073", "operatorname": "RATP", "pointgeo": {"lon": 2.3848878986690423, "lat": 48.85500743705073}, "nom_commune": "Paris", "code_insee": "75056"},{"id": "IDFM:C01379", "route_long_name": "9", "plans": "[{\"link\": \"https://www.ratp.fr/sites/default/files/lines-assets/plan-de-ligne/metro/plan-de-ligne_metro_ligne-9.pdf\", \"label\": \"Plan M\u00e9tro 9\"}]", "schedules": "[{\"routeId\": \"route:IDFM:RATP:566-C01379-2444066\", \"from\": \"Pont de S\u00e8vres\", \"to\": \"Mairie de Montreuil\", \"first\": \"05:30\", \"last\": \"01:26\"}, {\"routeId\": \"route:IDFM:RATP:566-C01379-2444067\", \"from\": \"Mairie de Montreuil\", \"to\": \"Pont de S\u00e8vres\", \"first\": \"05:30\", \"last\": \"01:32\"}]", "stop_id": "IDFM:463299", "stop_name": "Saint-Ambroise", "stop_lon": "2.3739964519221886", "stop_lat": "48.861480218467655", "operatorname": "RATP", "pointgeo": {"lon": 2.3739964519221886, "lat": 48.861480218467655}, "nom_commune": "Paris", "code_insee": "75056"},{"id": "IDFM:C01379", "route_long_name": "9", "plans": "[{\"link\": \"https://www.ratp.fr/sites/default/files/lines-assets/plan-de-ligne/metro/plan-de-ligne_metro_ligne-9.pdf\", \"label\": \"Plan M\u00e9tro 9\"}]", "schedules": "[{\"routeId\": \"route:IDFM:RATP:566-C01379-2444066\", \"from\": \"Pont de S\u00e8vres\", \"to\": \"Mairie de Montreuil\", \"first\": \"05:30\", \"last\": \"01:26\"}, {\"routeId\": \"route:IDFM:RATP:566-C01379-2444067\", \"from\": \"Mairie de Montreuil\", \"to\": \"Pont de S\u00e8vres\", \"first\": \"05:30\", \"last\": \"01:32\"}]", "stop_id": "IDFM:21933", "stop_name": "Bonne Nouvelle", "stop_lon": "2.3484940979375373", "stop_lat": "48.8706433160169", "operatorname": "RATP", "pointgeo": {"lon": 2.3484940979375373, "lat": 48.8706433160169}, "nom_commune": "Paris", "code_insee": "75056"},{"id": "IDFM:C01379", "route_long_name": "9", "plans": "[{\"link\": \"https://www.ratp.fr/sites/default/files/lines-assets/plan-de-ligne/metro/plan-de-ligne_metro_ligne-9.pdf\", \"label\": \"Plan M\u00e9tro 9\"}]", "schedules": "[{\"routeId\": \"route:IDFM:RATP:566-C01379-2444066\", \"from\": \"Pont de S\u00e8vres\", \"to\": \"Mairie de Montreuil\", \"first\": \"05:30\", \"last\": \"01:26\"}, {\"routeId\": \"route:IDFM:RATP:566-C01379-2444067\", \"from\": \"Mairie de Montreuil\", \"to\": \"Pont de S\u00e8vres\", \"first\": \"05:30\", \"last\": \"01:32\"}]", "stop_id": "IDFM:21915", "stop_name": "Ranelagh", "stop_lon": "2.270032697561899", "stop_lat": "48.855306214887065", "operatorname": "RATP", "pointgeo": {"lon": 2.270032697561899, "lat": 48.855306214887065}, "nom_commune": "Paris", "code_insee": "75056"},{"id": "IDFM:C01379", "route_long_name": "9", "plans": "[{\"link\": \"https://www.ratp.fr/sites/default/files/lines-assets/plan-de-ligne/metro/plan-de-ligne_metro_ligne-9.pdf\", \"label\": \"Plan M\u00e9tro 9\"}]", "schedules": "[{\"routeId\": \"route:IDFM:RATP:566-C01379-2444066\", \"from\": \"Pont de S\u00e8vres\", \"to\": \"Mairie de Montreuil\", \"first\": \"05:30\", \"last\": \"01:26\"}, {\"routeId\": \"route:IDFM:RATP:566-C01379-2444067\", \"from\": \"Mairie de Montreuil\", \"to\": \"Pont de S\u00e8vres\", \"first\": \"05:30\", \"last\": \"01:32\"}]", "stop_id": "IDFM:21917", "stop_name": "Trocad\u00e9ro", "stop_lon": "2.28683987979629", "stop_lat": "48.863088061116", "operatorname": "RATP", "pointgeo": {"lon": 2.28683987979629, "lat": 48.863088061116}, "nom_commune": "Paris", "code_insee": "75056"},{"id": "IDFM:C01379", "route_long_name": "9", "plans": "[{\"link\": \"https://www.ratp.fr/sites/default/files/lines-assets/plan-de-ligne/metro/plan-de-ligne_metro_ligne-9.pdf\", \"label\": \"Plan M\u00e9tro 9\"}]", "schedules": "[{\"routeId\": \"route:IDFM:RATP:566-C01379-2444066\", \"from\": \"Pont de S\u00e8vres\", \"to\": \"Mairie de Montreuil\", \"first\": \"05:30\", \"last\": \"01:26\"}, {\"routeId\": \"route:IDFM:RATP:566-C01379-2444067\", \"from\": \"Mairie de Montreuil\", \"to\": \"Pont de S\u00e8vres\", \"first\": \"05:30\", \"last\": \"01:32\"}]", "stop_id": "IDFM:21926", "stop_name": "Havre-Caumartin", "stop_lon": "2.327651103418782", "stop_lat": "48.87366675194512", "operatorname": "RATP", "pointgeo": {"lon": 2.327651103418782, "lat": 48.87366675194512}, "nom_commune": "Paris", "code_insee": "75056"},{"id": "IDFM:C01379", "route_long_name": "9", "plans": "[{\"link\": \"https://www.ratp.fr/sites/default/files/lines-assets/plan-de-ligne/metro/plan-de-ligne_metro_ligne-9.pdf\", \"label\": \"Plan M\u00e9tro 9\"}]", "schedules": "[{\"routeId\": \"route:IDFM:RATP:566-C01379-2444066\", \"from\": \"Pont de S\u00e8vres\", \"to\": \"Mairie de Montreuil\", \"first\": \"05:30\", \"last\": \"01:26\"}, {\"routeId\": \"route:IDFM:RATP:566-C01379-2444067\", \"from\": \"Mairie de Montreuil\", \"to\": \"Pont de S\u00e8vres\", \"first\": \"05:30\", \"last\": \"01:32\"}]", "stop_id": "IDFM:463215", "stop_name": "Mara\u00eechers", "stop_lon": "2.4060490065790447", "stop_lat": "48.85265013095636", "operatorname": "RATP", "pointgeo": {"lon": 2.4060490065790447, "lat": 48.85265013095636}, "nom_commune": "Paris", "code_insee": "75056"},{"id": "IDFM:C01379", "route_long_name": "9", "plans": "[{\"link\": \"https://www.ratp.fr/sites/default/files/lines-assets/plan-de-ligne/metro/plan-de-ligne_metro_ligne-9.pdf\", \"label\": \"Plan M\u00e9tro 9\"}]", "schedules": "[{\"routeId\": \"route:IDFM:RATP:566-C01379-2444066\", \"from\": \"Pont de S\u00e8vres\", \"to\": \"Mairie de Montreuil\", \"first\": \"05:30\", \"last\": \"01:26\"}, {\"routeId\": \"route:IDFM:RATP:566-C01379-2444067\", \"from\": \"Mairie de Montreuil\", \"to\": \"Pont de S\u00e8vres\", \"first\": \"05:30\", \"last\": \"01:32\"}]", "stop_id": "IDFM:21909", "stop_name": "Grands Boulevards", "stop_lon": "2.343167503558387", "stop_lat": "48.87141461757831", "operatorname": "RATP", "pointgeo": {"lon": 2.343167503558387, "lat": 48.87141461757831}, "nom_commune": "Paris", "code_insee": "75056"},{"id": "IDFM:C01379", "route_long_name": "9", "plans": "[{\"link\": \"https://www.ratp.fr/sites/default/files/lines-assets/plan-de-ligne/metro/plan-de-ligne_metro_ligne-9.pdf\", \"label\": \"Plan M\u00e9tro 9\"}]", "schedules": "[{\"routeId\": \"route:IDFM:RATP:566-C01379-2444066\", \"from\": \"Pont de S\u00e8vres\", \"to\": \"Mairie de Montreuil\", \"first\": \"05:30\", \"last\": \"01:26\"}, {\"routeId\": \"route:IDFM:RATP:566-C01379-2444067\", \"from\": \"Mairie de Montreuil\", \"to\": \"Pont de S\u00e8vres\", \"first\": \"05:30\", \"last\": \"01:32\"}]", "stop_id": "IDFM:21918", "stop_name": "R\u00e9publique", "stop_lon": "2.3631211111325285", "stop_lat": "48.86739447922248", "operatorname": "RATP", "pointgeo": {"lon": 2.3631211111325285, "lat": 48.86739447922248}, "nom_commune": "Paris", "code_insee": "75056"},{"id": "IDFM:C01379", "route_long_name": "9", "plans": "[{\"link\": \"https://www.ratp.fr/sites/default/files/lines-assets/plan-de-ligne/metro/plan-de-ligne_metro_ligne-9.pdf\", \"label\": \"Plan M\u00e9tro 9\"}]", "schedules": "[{\"routeId\": \"route:IDFM:RATP:566-C01379-2444066\", \"from\": \"Pont de S\u00e8vres\", \"to\": \"Mairie de Montreuil\", \"first\": \"05:30\", \"last\": \"01:26\"}, {\"routeId\": \"route:IDFM:RATP:566-C01379-2444067\", \"from\": \"Mairie de Montreuil\", \"to\": \"Pont de S\u00e8vres\", \"first\": \"05:30\", \"last\": \"01:32\"}]", "stop_id": "IDFM:463279", "stop_name": "Porte de Montreuil", "stop_lon": "2.410718154027495", "stop_lat": "48.85348263120656", "operatorname": "RATP", "pointgeo": {"lon": 2.410718154027495, "lat": 48.85348263120656}, "nom_commune": "Paris", "code_insee": "75056"},{"id": "IDFM:C01379", "route_long_name": "9", "plans": "[{\"link\": \"https://www.ratp.fr/sites/default/files/lines-assets/plan-de-ligne/metro/plan-de-ligne_metro_ligne-9.pdf\", \"label\": \"Plan M\u00e9tro 9\"}]", "schedules": "[{\"routeId\": \"route:IDFM:RATP:566-C01379-2444066\", \"from\": \"Pont de S\u00e8vres\", \"to\": \"Mairie de Montreuil\", \"first\": \"05:30\", \"last\": \"01:26\"}, {\"routeId\": \"route:IDFM:RATP:566-C01379-2444067\", \"from\": \"Mairie de Montreuil\", \"to\": \"Pont de S\u00e8vres\", \"first\": \"05:30\", \"last\": \"01:32\"}]", "stop_id": "IDFM:463036", "stop_name": "Richelieu - Drouot", "stop_lon": "2.3386163553228103", "stop_lat": "48.87223943327036", "operatorname": "RATP", "pointgeo": {"lon": 2.3386163553228103, "lat": 48.87223943327036}, "nom_commune": "Paris", "code_insee": "75056"},{"id": "IDFM:C01379", "route_long_name": "9", "plans": "[{\"link\": \"https://www.ratp.fr/sites/default/files/lines-assets/plan-de-ligne/metro/plan-de-ligne_metro_ligne-9.pdf\", \"label\": \"Plan M\u00e9tro 9\"}]", "schedules": "[{\"routeId\": \"route:IDFM:RATP:566-C01379-2444066\", \"from\": \"Pont de S\u00e8vres\", \"to\": \"Mairie de Montreuil\", \"first\": \"05:30\", \"last\": \"01:26\"}, {\"routeId\": \"route:IDFM:RATP:566-C01379-2444067\", \"from\": \"Mairie de Montreuil\", \"to\": \"Pont de S\u00e8vres\", \"first\": \"05:30\", \"last\": \"01:32\"}]", "stop_id": "IDFM:463300", "stop_name": "Saint-Augustin", "stop_lon": "2.321031570403537", "stop_lat": "48.874632152132925", "operatorname": "RATP", "pointgeo": {"lon": 2.321031570403537, "lat": 48.874632152132925}, "nom_commune": "Paris", "code_insee": "75056"},{"id": "IDFM:C01379", "route_long_name": "9", "plans": "[{\"link\": \"https://www.ratp.fr/sites/default/files/lines-assets/plan-de-ligne/metro/plan-de-ligne_metro_ligne-9.pdf\", \"label\": \"Plan M\u00e9tro 9\"}]", "schedules": "[{\"routeId\": \"route:IDFM:RATP:566-C01379-2444066\", \"from\": \"Pont de S\u00e8vres\", \"to\": \"Mairie de Montreuil\", \"first\": \"05:30\", \"last\": \"01:26\"}, {\"routeId\": \"route:IDFM:RATP:566-C01379-2444067\", \"from\": \"Mairie de Montreuil\", \"to\": \"Pont de S\u00e8vres\", \"first\": \"05:30\", \"last\": \"01:32\"}]", "stop_id": "IDFM:462956", "stop_name": "Exelmans", "stop_lon": "2.25967486021195", "stop_lat": "48.842624465259945", "operatorname": "RATP", "pointgeo": {"lon": 2.25967486021195, "lat": 48.842624465259945}, "nom_commune": "Paris", "code_insee": "75056"},{"id": "IDFM:C01379", "route_long_name": "9", "plans": "[{\"link\": \"https://www.ratp.fr/sites/default/files/lines-assets/plan-de-ligne/metro/plan-de-ligne_metro_ligne-9.pdf\", \"label\": \"Plan M\u00e9tro 9\"}]", "schedules": "[{\"routeId\": \"route:IDFM:RATP:566-C01379-2444066\", \"from\": \"Pont de S\u00e8vres\", \"to\": \"Mairie de Montreuil\", \"first\": \"05:30\", \"last\": \"01:26\"}, {\"routeId\": \"route:IDFM:RATP:566-C01379-2444067\", \"from\": \"Mairie de Montreuil\", \"to\": \"Pont de S\u00e8vres\", \"first\": \"05:30\", \"last\": \"01:32\"}]", "stop_id": "IDFM:463259", "stop_name": "Porte de Saint-Cloud", "stop_lon": "2.2567894964207142", "stop_lat": "48.83799728287381", "operatorname": "RATP", "pointgeo": {"lon": 2.2567894964207142, "lat": 48.83799728287381}, "nom_commune": "Paris", "code_insee": "75056"},{"id": "IDFM:C01379", "route_long_name": "9", "plans": "[{\"link\": \"https://www.ratp.fr/sites/default/files/lines-assets/plan-de-ligne/metro/plan-de-ligne_metro_ligne-9.pdf\", \"label\": \"Plan M\u00e9tro 9\"}]", "schedules": "[{\"routeId\": \"route:IDFM:RATP:566-C01379-2444066\", \"from\": \"Pont de S\u00e8vres\", \"to\": \"Mairie de Montreuil\", \"first\": \"05:30\", \"last\": \"01:26\"}, {\"routeId\": \"route:IDFM:RATP:566-C01379-2444067\", \"from\": \"Mairie de Montreuil\", \"to\": \"Pont de S\u00e8vres\", \"first\": \"05:30\", \"last\": \"01:32\"}]", "stop_id": "IDFM:463233", "stop_name": "Pont de S\u00e8vres", "stop_lon": "2.2305052170885546", "stop_lat": "48.82966919074605", "operatorname": "RATP", "pointgeo": {"lon": 2.2305052170885546, "lat": 48.82966919074605}, "nom_commune": "Boulogne-Billancourt", "code_insee": "92012"},{"id": "IDFM:C01379", "route_long_name": "9", "plans": "[{\"link\": \"https://www.ratp.fr/sites/default/files/lines-assets/plan-de-ligne/metro/plan-de-ligne_metro_ligne-9.pdf\", \"label\": \"Plan M\u00e9tro 9\"}]", "schedules": "[{\"routeId\": \"route:IDFM:RATP:566-C01379-2444066\", \"from\": \"Pont de S\u00e8vres\", \"to\": \"Mairie de Montreuil\", \"first\": \"05:30\", \"last\": \"01:26\"}, {\"routeId\": \"route:IDFM:RATP:566-C01379-2444067\", \"from\": \"Mairie de Montreuil\", \"to\": \"Pont de S\u00e8vres\", \"first\": \"05:30\", \"last\": \"01:32\"}]", "stop_id": "IDFM:21930", "stop_name": "Exelmans", "stop_lon": "2.259800845144346", "stop_lat": "48.84258027627653", "operatorname": "RATP", "pointgeo": {"lon": 2.259800845144346, "lat": 48.84258027627653}, "nom_commune": "Paris", "code_insee": "75056"},{"id": "IDFM:C01379", "route_long_name": "9", "plans": "[{\"link\": \"https://www.ratp.fr/sites/default/files/lines-assets/plan-de-ligne/metro/plan-de-ligne_metro_ligne-9.pdf\", \"label\": \"Plan M\u00e9tro 9\"}]", "schedules": "[{\"routeId\": \"route:IDFM:RATP:566-C01379-2444066\", \"from\": \"Pont de S\u00e8vres\", \"to\": \"Mairie de Montreuil\", \"first\": \"05:30\", \"last\": \"01:26\"}, {\"routeId\": \"route:IDFM:RATP:566-C01379-2444067\", \"from\": \"Mairie de Montreuil\", \"to\": \"Pont de S\u00e8vres\", \"first\": \"05:30\", \"last\": \"01:32\"}]", "stop_id": "IDFM:463203", "stop_name": "La Muette", "stop_lon": "2.2740962446697224", "stop_lat": "48.85809196689865", "operatorname": "RATP", "pointgeo": {"lon": 2.2740962446697224, "lat": 48.85809196689865}, "nom_commune": "Paris", "code_insee": "75056"},{"id": "IDFM:C01379", "route_long_name": "9", "plans": "[{\"link\": \"https://www.ratp.fr/sites/default/files/lines-assets/plan-de-ligne/metro/plan-de-ligne_metro_ligne-9.pdf\", \"label\": \"Plan M\u00e9tro 9\"}]", "schedules": "[{\"routeId\": \"route:IDFM:RATP:566-C01379-2444066\", \"from\": \"Pont de S\u00e8vres\", \"to\": \"Mairie de Montreuil\", \"first\": \"05:30\", \"last\": \"01:26\"}, {\"routeId\": \"route:IDFM:RATP:566-C01379-2444067\", \"from\": \"Mairie de Montreuil\", \"to\": \"Pont de S\u00e8vres\", \"first\": \"05:30\", \"last\": \"01:32\"}]", "stop_id": "IDFM:462915", "stop_name": "Saint-Philippe du Roule", "stop_lon": "2.3101372056878247", "stop_lat": "48.87215513107743", "operatorname": "RATP", "pointgeo": {"lon": 2.3101372056878247, "lat": 48.87215513107743}, "nom_commune": "Paris", "code_insee": "75056"},{"id": "IDFM:C01379", "route_long_name": "9", "plans": "[{\"link\": \"https://www.ratp.fr/sites/default/files/lines-assets/plan-de-ligne/metro/plan-de-ligne_metro_ligne-9.pdf\", \"label\": \"Plan M\u00e9tro 9\"}]", "schedules": "[{\"routeId\": \"route:IDFM:RATP:566-C01379-2444066\", \"from\": \"Pont de S\u00e8vres\", \"to\": \"Mairie de Montreuil\", \"first\": \"05:30\", \"last\": \"01:26\"}, {\"routeId\": \"route:IDFM:RATP:566-C01379-2444067\", \"from\": \"Mairie de Montreuil\", \"to\": \"Pont de S\u00e8vres\", \"first\": \"05:30\", \"last\": \"01:32\"}]", "stop_id": "IDFM:21943", "stop_name": "Croix de Chavaux", "stop_lon": "2.4358546126745826", "stop_lat": "48.857992585158016", "operatorname": "RATP", "pointgeo": {"lon": 2.4358546126745826, "lat": 48.857992585158016}, "nom_commune": "Montreuil", "code_insee": "93048"},{"id": "IDFM:C01379", "route_long_name": "9", "plans": "[{\"link\": \"https://www.ratp.fr/sites/default/files/lines-assets/plan-de-ligne/metro/plan-de-ligne_metro_ligne-9.pdf\", \"label\": \"Plan M\u00e9tro 9\"}]", "schedules": "[{\"routeId\": \"route:IDFM:RATP:566-C01379-2444066\", \"from\": \"Pont de S\u00e8vres\", \"to\": \"Mairie de Montreuil\", \"first\": \"05:30\", \"last\": \"01:26\"}, {\"routeId\": \"route:IDFM:RATP:566-C01379-2444067\", \"from\": \"Mairie de Montreuil\", \"to\": \"Pont de S\u00e8vres\", \"first\": \"05:30\", \"last\": \"01:32\"}]", "stop_id": "IDFM:463221", "stop_name": "Mairie de Montreuil", "stop_lon": "2.4414386664522225", "stop_lat": "48.862313130940244", "operatorname": "RATP", "pointgeo": {"lon": 2.4414386664522225, "lat": 48.862313130940244}, "nom_commune": "Montreuil", "code_insee": "93048"},{"id": "IDFM:C01379", "route_long_name": "9", "plans": "[{\"link\": \"https://www.ratp.fr/sites/default/files/lines-assets/plan-de-ligne/metro/plan-de-ligne_metro_ligne-9.pdf\", \"label\": \"Plan M\u00e9tro 9\"}]", "schedules": "[{\"routeId\": \"route:IDFM:RATP:566-C01379-2444066\", \"from\": \"Pont de S\u00e8vres\", \"to\": \"Mairie de Montreuil\", \"first\": \"05:30\", \"last\": \"01:26\"}, {\"routeId\": \"route:IDFM:RATP:566-C01379-2444067\", \"from\": \"Mairie de Montreuil\", \"to\": \"Pont de S\u00e8vres\", \"first\": \"05:30\", \"last\": \"01:32\"}]", "stop_id": "IDFM:21936", "stop_name": "Mara\u00eechers", "stop_lon": "2.406038544798052", "stop_lat": "48.85273102047999", "operatorname": "RATP", "pointgeo": {"lon": 2.406038544798052, "lat": 48.85273102047999}, "nom_commune": "Paris", "code_insee": "75056"},{"id": "IDFM:C01379", "route_long_name": "9", "plans": "[{\"link\": \"https://www.ratp.fr/sites/default/files/lines-assets/plan-de-ligne/metro/plan-de-ligne_metro_ligne-9.pdf\", \"label\": \"Plan M\u00e9tro 9\"}]", "schedules": "[{\"routeId\": \"route:IDFM:RATP:566-C01379-2444066\", \"from\": \"Pont de S\u00e8vres\", \"to\": \"Mairie de Montreuil\", \"first\": \"05:30\", \"last\": \"01:26\"}, {\"routeId\": \"route:IDFM:RATP:566-C01379-2444067\", \"from\": \"Mairie de Montreuil\", \"to\": \"Pont de S\u00e8vres\", \"first\": \"05:30\", \"last\": \"01:32\"}]", "stop_id": "IDFM:21916", "stop_name": "Voltaire", "stop_lon": "2.3802080115879227", "stop_lat": "48.857735295553454", "operatorname": "RATP", "pointgeo": {"lon": 2.3802080115879227, "lat": 48.857735295553454}, "nom_commune": "Paris", "code_insee": "75056"},{"id": "IDFM:C01379", "route_long_name": "9", "plans": "[{\"link\": \"https://www.ratp.fr/sites/default/files/lines-assets/plan-de-ligne/metro/plan-de-ligne_metro_ligne-9.pdf\", \"label\": \"Plan M\u00e9tro 9\"}]", "schedules": "[{\"routeId\": \"route:IDFM:RATP:566-C01379-2444066\", \"from\": \"Pont de S\u00e8vres\", \"to\": \"Mairie de Montreuil\", \"first\": \"05:30\", \"last\": \"01:26\"}, {\"routeId\": \"route:IDFM:RATP:566-C01379-2444067\", \"from\": \"Mairie de Montreuil\", \"to\": \"Pont de S\u00e8vres\", \"first\": \"05:30\", \"last\": \"01:32\"}]", "stop_id": "IDFM:463054", "stop_name": "Oberkampf", "stop_lon": "2.3682236708807456", "stop_lat": "48.86487188759515", "operatorname": "RATP", "pointgeo": {"lon": 2.3682236708807456, "lat": 48.86487188759515}, "nom_commune": "Paris", "code_insee": "75056"},{"id": "IDFM:C01379", "route_long_name": "9", "plans": "[{\"link\": \"https://www.ratp.fr/sites/default/files/lines-assets/plan-de-ligne/metro/plan-de-ligne_metro_ligne-9.pdf\", \"label\": \"Plan M\u00e9tro 9\"}]", "schedules": "[{\"routeId\": \"route:IDFM:RATP:566-C01379-2444066\", \"from\": \"Pont de S\u00e8vres\", \"to\": \"Mairie de Montreuil\", \"first\": \"05:30\", \"last\": \"01:26\"}, {\"routeId\": \"route:IDFM:RATP:566-C01379-2444067\", \"from\": \"Mairie de Montreuil\", \"to\": \"Pont de S\u00e8vres\", \"first\": \"05:30\", \"last\": \"01:32\"}]", "stop_id": "IDFM:21924", "stop_name": "Miromesnil", "stop_lon": "2.3146430401104467", "stop_lat": "48.8737728492328", "operatorname": "RATP", "pointgeo": {"lon": 2.3146430401104467, "lat": 48.8737728492328}, "nom_commune": "Paris", "code_insee": "75056"},{"id": "IDFM:C01379", "route_long_name": "9", "plans": "[{\"link\": \"https://www.ratp.fr/sites/default/files/lines-assets/plan-de-ligne/metro/plan-de-ligne_metro_ligne-9.pdf\", \"label\": \"Plan M\u00e9tro 9\"}]", "schedules": "[{\"routeId\": \"route:IDFM:RATP:566-C01379-2444066\", \"from\": \"Pont de S\u00e8vres\", \"to\": \"Mairie de Montreuil\", \"first\": \"05:30\", \"last\": \"01:26\"}, {\"routeId\": \"route:IDFM:RATP:566-C01379-2444067\", \"from\": \"Mairie de Montreuil\", \"to\": \"Pont de S\u00e8vres\", \"first\": \"05:30\", \"last\": \"01:32\"}]", "stop_id": "IDFM:463290", "stop_name": "Ranelagh", "stop_lon": "2.269948157934635", "stop_lat": "48.85550355839564", "operatorname": "RATP", "pointgeo": {"lon": 2.269948157934635, "lat": 48.85550355839564}, "nom_commune": "Paris", "code_insee": "75056"},{"id": "IDFM:C01379", "route_long_name": "9", "plans": "[{\"link\": \"https://www.ratp.fr/sites/default/files/lines-assets/plan-de-ligne/metro/plan-de-ligne_metro_ligne-9.pdf\", \"label\": \"Plan M\u00e9tro 9\"}]", "schedules": "[{\"routeId\": \"route:IDFM:RATP:566-C01379-2444066\", \"from\": \"Pont de S\u00e8vres\", \"to\": \"Mairie de Montreuil\", \"first\": \"05:30\", \"last\": \"01:26\"}, {\"routeId\": \"route:IDFM:RATP:566-C01379-2444067\", \"from\": \"Mairie de Montreuil\", \"to\": \"Pont de S\u00e8vres\", \"first\": \"05:30\", \"last\": \"01:32\"}]", "stop_id": "IDFM:21940", "stop_name": "Marcel Sembat", "stop_lon": "2.24346821405889", "stop_lat": "48.83380810724753", "operatorname": "RATP", "pointgeo": {"lon": 2.24346821405889, "lat": 48.83380810724753}, "nom_commune": "Boulogne-Billancourt", "code_insee": "92012"},{"id": "IDFM:C01379", "route_long_name": "9", "plans": "[{\"link\": \"https://www.ratp.fr/sites/default/files/lines-assets/plan-de-ligne/metro/plan-de-ligne_metro_ligne-9.pdf\", \"label\": \"Plan M\u00e9tro 9\"}]", "schedules": "[{\"routeId\": \"route:IDFM:RATP:566-C01379-2444066\", \"from\": \"Pont de S\u00e8vres\", \"to\": \"Mairie de Montreuil\", \"first\": \"05:30\", \"last\": \"01:26\"}, {\"routeId\": \"route:IDFM:RATP:566-C01379-2444067\", \"from\": \"Mairie de Montreuil\", \"to\": \"Pont de S\u00e8vres\", \"first\": \"05:30\", \"last\": \"01:32\"}]", "stop_id": "IDFM:463052", "stop_name": "Alma - Marceau", "stop_lon": "2.3011043523926706", "stop_lat": "48.86464714790582", "operatorname": "RATP", "pointgeo": {"lon": 2.3011043523926706, "lat": 48.86464714790582}, "nom_commune": "Paris", "code_insee": "75056"},{"id": "IDFM:C01379", "route_long_name": "9", "plans": "[{\"link\": \"https://www.ratp.fr/sites/default/files/lines-assets/plan-de-ligne/metro/plan-de-ligne_metro_ligne-9.pdf\", \"label\": \"Plan M\u00e9tro 9\"}]", "schedules": "[{\"routeId\": \"route:IDFM:RATP:566-C01379-2444066\", \"from\": \"Pont de S\u00e8vres\", \"to\": \"Mairie de Montreuil\", \"first\": \"05:30\", \"last\": \"01:26\"}, {\"routeId\": \"route:IDFM:RATP:566-C01379-2444067\", \"from\": \"Mairie de Montreuil\", \"to\": \"Pont de S\u00e8vres\", \"first\": \"05:30\", \"last\": \"01:32\"}]", "stop_id": "IDFM:21911", "stop_name": "Saint-Augustin", "stop_lon": "2.3210135978085997", "stop_lat": "48.87454661293485", "operatorname": "RATP", "pointgeo": {"lon": 2.3210135978085997, "lat": 48.87454661293485}, "nom_commune": "Paris", "code_insee": "75056"},{"id": "IDFM:C01379", "route_long_name": "9", "plans": "[{\"link\": \"https://www.ratp.fr/sites/default/files/lines-assets/plan-de-ligne/metro/plan-de-ligne_metro_ligne-9.pdf\", \"label\": \"Plan M\u00e9tro 9\"}]", "schedules": "[{\"routeId\": \"route:IDFM:RATP:566-C01379-2444066\", \"from\": \"Pont de S\u00e8vres\", \"to\": \"Mairie de Montreuil\", \"first\": \"05:30\", \"last\": \"01:26\"}, {\"routeId\": \"route:IDFM:RATP:566-C01379-2444067\", \"from\": \"Mairie de Montreuil\", \"to\": \"Pont de S\u00e8vres\", \"first\": \"05:30\", \"last\": \"01:32\"}]", "stop_id": "IDFM:25084", "stop_name": "Buzenval", "stop_lon": "2.401170769368413", "stop_lat": "48.85176243983227", "operatorname": "RATP", "pointgeo": {"lon": 2.401170769368413, "lat": 48.85176243983227}, "nom_commune": "Paris", "code_insee": "75056"},{"id": "IDFM:C01379", "route_long_name": "9", "plans": "[{\"link\": \"https://www.ratp.fr/sites/default/files/lines-assets/plan-de-ligne/metro/plan-de-ligne_metro_ligne-9.pdf\", \"label\": \"Plan M\u00e9tro 9\"}]", "schedules": "[{\"routeId\": \"route:IDFM:RATP:566-C01379-2444066\", \"from\": \"Pont de S\u00e8vres\", \"to\": \"Mairie de Montreuil\", \"first\": \"05:30\", \"last\": \"01:26\"}, {\"routeId\": \"route:IDFM:RATP:566-C01379-2444067\", \"from\": \"Mairie de Montreuil\", \"to\": \"Pont de S\u00e8vres\", \"first\": \"05:30\", \"last\": \"01:32\"}]", "stop_id": "IDFM:462963", "stop_name": "R\u00e9publique", "stop_lon": "2.3633023407804536", "stop_lat": "48.86751235781114", "operatorname": "RATP", "pointgeo": {"lon": 2.3633023407804536, "lat": 48.86751235781114}, "nom_commune": "Paris", "code_insee": "75056"},{"id": "IDFM:C01379", "route_long_name": "9", "plans": "[{\"link\": \"https://www.ratp.fr/sites/default/files/lines-assets/plan-de-ligne/metro/plan-de-ligne_metro_ligne-9.pdf\", \"label\": \"Plan M\u00e9tro 9\"}]", "schedules": "[{\"routeId\": \"route:IDFM:RATP:566-C01379-2444066\", \"from\": \"Pont de S\u00e8vres\", \"to\": \"Mairie de Montreuil\", \"first\": \"05:30\", \"last\": \"01:26\"}, {\"routeId\": \"route:IDFM:RATP:566-C01379-2444067\", \"from\": \"Mairie de Montreuil\", \"to\": \"Pont de S\u00e8vres\", \"first\": \"05:30\", \"last\": \"01:32\"}]", "stop_id": "IDFM:463264", "stop_name": "Strasbourg - Saint-Denis", "stop_lon": "2.3538223820093616", "stop_lat": "48.86950305730265", "operatorname": "RATP", "pointgeo": {"lon": 2.3538223820093616, "lat": 48.86950305730265}, "nom_commune": "Paris", "code_insee": "75056"},{"id": "IDFM:C01379", "route_long_name": "9", "plans": "[{\"link\": \"https://www.ratp.fr/sites/default/files/lines-assets/plan-de-ligne/metro/plan-de-ligne_metro_ligne-9.pdf\", \"label\": \"Plan M\u00e9tro 9\"}]", "schedules": "[{\"routeId\": \"route:IDFM:RATP:566-C01379-2444066\", \"from\": \"Pont de S\u00e8vres\", \"to\": \"Mairie de Montreuil\", \"first\": \"05:30\", \"last\": \"01:26\"}, {\"routeId\": \"route:IDFM:RATP:566-C01379-2444067\", \"from\": \"Mairie de Montreuil\", \"to\": \"Pont de S\u00e8vres\", \"first\": \"05:30\", \"last\": \"01:32\"}]", "stop_id": "IDFM:21932", "stop_name": "Chauss\u00e9e d'Antin - La Fayette", "stop_lon": "2.334000835220775", "stop_lat": "48.87288385004922", "operatorname": "RATP", "pointgeo": {"lon": 2.334000835220775, "lat": 48.87288385004922}, "nom_commune": "Paris", "code_insee": "75056"},{"id": "IDFM:C01379", "route_long_name": "9", "plans": "[{\"link\": \"https://www.ratp.fr/sites/default/files/lines-assets/plan-de-ligne/metro/plan-de-ligne_metro_ligne-9.pdf\", \"label\": \"Plan M\u00e9tro 9\"}]", "schedules": "[{\"routeId\": \"route:IDFM:RATP:566-C01379-2444066\", \"from\": \"Pont de S\u00e8vres\", \"to\": \"Mairie de Montreuil\", \"first\": \"05:30\", \"last\": \"01:26\"}, {\"routeId\": \"route:IDFM:RATP:566-C01379-2444067\", \"from\": \"Mairie de Montreuil\", \"to\": \"Pont de S\u00e8vres\", \"first\": \"05:30\", \"last\": \"01:32\"}]", "stop_id": "IDFM:21912", "stop_name": "Saint-Philippe du Roule", "stop_lon": "2.310001699600818", "stop_lat": "48.87215435003593", "operatorname": "RATP", "pointgeo": {"lon": 2.310001699600818, "lat": 48.87215435003593}, "nom_commune": "Paris", "code_insee": "75056"},{"id": "IDFM:C01379", "route_long_name": "9", "plans": "[{\"link\": \"https://www.ratp.fr/sites/default/files/lines-assets/plan-de-ligne/metro/plan-de-ligne_metro_ligne-9.pdf\", \"label\": \"Plan M\u00e9tro 9\"}]", "schedules": "[{\"routeId\": \"route:IDFM:RATP:566-C01379-2444066\", \"from\": \"Pont de S\u00e8vres\", \"to\": \"Mairie de Montreuil\", \"first\": \"05:30\", \"last\": \"01:26\"}, {\"routeId\": \"route:IDFM:RATP:566-C01379-2444067\", \"from\": \"Mairie de Montreuil\", \"to\": \"Pont de S\u00e8vres\", \"first\": \"05:30\", \"last\": \"01:32\"}]", "stop_id": "IDFM:21935", "stop_name": "Alma - Marceau", "stop_lon": "2.301130527470699", "stop_lat": "48.8647282422178", "operatorname": "RATP", "pointgeo": {"lon": 2.301130527470699, "lat": 48.8647282422178}, "nom_commune": "Paris", "code_insee": "75056"},{"id": "IDFM:C01379", "route_long_name": "9", "plans": "[{\"link\": \"https://www.ratp.fr/sites/default/files/lines-assets/plan-de-ligne/metro/plan-de-ligne_metro_ligne-9.pdf\", \"label\": \"Plan M\u00e9tro 9\"}]", "schedules": "[{\"routeId\": \"route:IDFM:RATP:566-C01379-2444066\", \"from\": \"Pont de S\u00e8vres\", \"to\": \"Mairie de Montreuil\", \"first\": \"05:30\", \"last\": \"01:26\"}, {\"routeId\": \"route:IDFM:RATP:566-C01379-2444067\", \"from\": \"Mairie de Montreuil\", \"to\": \"Pont de S\u00e8vres\", \"first\": \"05:30\", \"last\": \"01:32\"}]", "stop_id": "IDFM:21929", "stop_name": "La Muette", "stop_lon": "2.2740962446697224", "stop_lat": "48.85809196689865", "operatorname": "RATP", "pointgeo": {"lon": 2.2740962446697224, "lat": 48.85809196689865}, "nom_commune": "Paris", "code_insee": "75056"},{"id": "IDFM:C01379", "route_long_name": "9", "plans": "[{\"link\": \"https://www.ratp.fr/sites/default/files/lines-assets/plan-de-ligne/metro/plan-de-ligne_metro_ligne-9.pdf\", \"label\": \"Plan M\u00e9tro 9\"}]", "schedules": "[{\"routeId\": \"route:IDFM:RATP:566-C01379-2444066\", \"from\": \"Pont de S\u00e8vres\", \"to\": \"Mairie de Montreuil\", \"first\": \"05:30\", \"last\": \"01:26\"}, {\"routeId\": \"route:IDFM:RATP:566-C01379-2444067\", \"from\": \"Mairie de Montreuil\", \"to\": \"Pont de S\u00e8vres\", \"first\": \"05:30\", \"last\": \"01:32\"}]", "stop_id": "IDFM:463035", "stop_name": "Billancourt", "stop_lon": "2.237891101038026", "stop_lat": "48.83191997405451", "operatorname": "RATP", "pointgeo": {"lon": 2.237891101038026, "lat": 48.83191997405451}, "nom_commune": "Boulogne-Billancourt", "code_insee": "92012"},{"id": "IDFM:C01379", "route_long_name": "9", "plans": "[{\"link\": \"https://www.ratp.fr/sites/default/files/lines-assets/plan-de-ligne/metro/plan-de-ligne_metro_ligne-9.pdf\", \"label\": \"Plan M\u00e9tro 9\"}]", "schedules": "[{\"routeId\": \"route:IDFM:RATP:566-C01379-2444066\", \"from\": \"Pont de S\u00e8vres\", \"to\": \"Mairie de Montreuil\", \"first\": \"05:30\", \"last\": \"01:26\"}, {\"routeId\": \"route:IDFM:RATP:566-C01379-2444067\", \"from\": \"Mairie de Montreuil\", \"to\": \"Pont de S\u00e8vres\", \"first\": \"05:30\", \"last\": \"01:32\"}]", "stop_id": "IDFM:21922", "stop_name": "Michel-Ange - Auteuil", "stop_lon": "2.2639392129884905", "stop_lat": "48.84767825351756", "operatorname": "RATP", "pointgeo": {"lon": 2.2639392129884905, "lat": 48.84767825351756}, "nom_commune": "Paris", "code_insee": "75056"},{"id": "IDFM:C01379", "route_long_name": "9", "plans": "[{\"link\": \"https://www.ratp.fr/sites/default/files/lines-assets/plan-de-ligne/metro/plan-de-ligne_metro_ligne-9.pdf\", \"label\": \"Plan M\u00e9tro 9\"}]", "schedules": "[{\"routeId\": \"route:IDFM:RATP:566-C01379-2444066\", \"from\": \"Pont de S\u00e8vres\", \"to\": \"Mairie de Montreuil\", \"first\": \"05:30\", \"last\": \"01:26\"}, {\"routeId\": \"route:IDFM:RATP:566-C01379-2444067\", \"from\": \"Mairie de Montreuil\", \"to\": \"Pont de S\u00e8vres\", \"first\": \"05:30\", \"last\": \"01:32\"}]", "stop_id": "IDFM:21927", "stop_name": "I\u00e9na", "stop_lon": "2.293906396859107", "stop_lat": "48.864685839288676", "operatorname": "RATP", "pointgeo": {"lon": 2.293906396859107, "lat": 48.864685839288676}, "nom_commune": "Paris", "code_insee": "75056"},{"id": "IDFM:C01379", "route_long_name": "9", "plans": "[{\"link\": \"https://www.ratp.fr/sites/default/files/lines-assets/plan-de-ligne/metro/plan-de-ligne_metro_ligne-9.pdf\", \"label\": \"Plan M\u00e9tro 9\"}]", "schedules": "[{\"routeId\": \"route:IDFM:RATP:566-C01379-2444066\", \"from\": \"Pont de S\u00e8vres\", \"to\": \"Mairie de Montreuil\", \"first\": \"05:30\", \"last\": \"01:26\"}, {\"routeId\": \"route:IDFM:RATP:566-C01379-2444067\", \"from\": \"Mairie de Montreuil\", \"to\": \"Pont de S\u00e8vres\", \"first\": \"05:30\", \"last\": \"01:32\"}]", "stop_id": "IDFM:463144", "stop_name": "Chauss\u00e9e d'Antin - La Fayette", "stop_lon": "2.333970457594147", "stop_lat": "48.87280723715393", "operatorname": "RATP", "pointgeo": {"lon": 2.333970457594147, "lat": 48.87280723715393}, "nom_commune": "Paris", "code_insee": "75056"},{"id": "IDFM:C01379", "route_long_name": "9", "plans": "[{\"link\": \"https://www.ratp.fr/sites/default/files/lines-assets/plan-de-ligne/metro/plan-de-ligne_metro_ligne-9.pdf\", \"label\": \"Plan M\u00e9tro 9\"}]", "schedules": "[{\"routeId\": \"route:IDFM:RATP:566-C01379-2444066\", \"from\": \"Pont de S\u00e8vres\", \"to\": \"Mairie de Montreuil\", \"first\": \"05:30\", \"last\": \"01:26\"}, {\"routeId\": \"route:IDFM:RATP:566-C01379-2444067\", \"from\": \"Mairie de Montreuil\", \"to\": \"Pont de S\u00e8vres\", \"first\": \"05:30\", \"last\": \"01:32\"}]", "stop_id": "IDFM:21910", "stop_name": "Saint-Ambroise", "stop_lon": "2.3738805382115475", "stop_lat": "48.86141665790915", "operatorname": "RATP", "pointgeo": {"lon": 2.3738805382115475, "lat": 48.86141665790915}, "nom_commune": "Paris", "code_insee": "75056"},{"id": "IDFM:C01379", "route_long_name": "9", "plans": "[{\"link\": \"https://www.ratp.fr/sites/default/files/lines-assets/plan-de-ligne/metro/plan-de-ligne_metro_ligne-9.pdf\", \"label\": \"Plan M\u00e9tro 9\"}]", "schedules": "[{\"routeId\": \"route:IDFM:RATP:566-C01379-2444066\", \"from\": \"Pont de S\u00e8vres\", \"to\": \"Mairie de Montreuil\", \"first\": \"05:30\", \"last\": \"01:26\"}, {\"routeId\": \"route:IDFM:RATP:566-C01379-2444067\", \"from\": \"Mairie de Montreuil\", \"to\": \"Pont de S\u00e8vres\", \"first\": \"05:30\", \"last\": \"01:32\"}]", "stop_id": "IDFM:21919", "stop_name": "Nation", "stop_lon": "2.3959437210498136", "stop_lat": "48.84888521841715", "operatorname": "RATP", "pointgeo": {"lon": 2.3959437210498136, "lat": 48.84888521841715}, "nom_commune": "Paris", "code_insee": "75056"},{"id": "IDFM:C01379", "route_long_name": "9", "plans": "[{\"link\": \"https://www.ratp.fr/sites/default/files/lines-assets/plan-de-ligne/metro/plan-de-ligne_metro_ligne-9.pdf\", \"label\": \"Plan M\u00e9tro 9\"}]", "schedules": "[{\"routeId\": \"route:IDFM:RATP:566-C01379-2444066\", \"from\": \"Pont de S\u00e8vres\", \"to\": \"Mairie de Montreuil\", \"first\": \"05:30\", \"last\": \"01:26\"}, {\"routeId\": \"route:IDFM:RATP:566-C01379-2444067\", \"from\": \"Mairie de Montreuil\", \"to\": \"Pont de S\u00e8vres\", \"first\": \"05:30\", \"last\": \"01:32\"}]", "stop_id": "IDFM:463049", "stop_name": "Grands Boulevards", "stop_lon": "2.3432202183423976", "stop_lat": "48.871558801223806", "operatorname": "RATP", "pointgeo": {"lon": 2.3432202183423976, "lat": 48.871558801223806}, "nom_commune": "Paris", "code_insee": "75056"},{"id": "IDFM:C01379", "route_long_name": "9", "plans": "[{\"link\": \"https://www.ratp.fr/sites/default/files/lines-assets/plan-de-ligne/metro/plan-de-ligne_metro_ligne-9.pdf\", \"label\": \"Plan M\u00e9tro 9\"}]", "schedules": "[{\"routeId\": \"route:IDFM:RATP:566-C01379-2444066\", \"from\": \"Pont de S\u00e8vres\", \"to\": \"Mairie de Montreuil\", \"first\": \"05:30\", \"last\": \"01:26\"}, {\"routeId\": \"route:IDFM:RATP:566-C01379-2444067\", \"from\": \"Mairie de Montreuil\", \"to\": \"Pont de S\u00e8vres\", \"first\": \"05:30\", \"last\": \"01:32\"}]", "stop_id": "IDFM:21931", "stop_name": "Franklin D. Roosevelt", "stop_lon": "2.309488192337113", "stop_lat": "48.86872488799857", "operatorname": "RATP", "pointgeo": {"lon": 2.309488192337113, "lat": 48.86872488799857}, "nom_commune": "Paris", "code_insee": "75056"},{"id": "IDFM:C01379", "route_long_name": "9", "plans": "[{\"link\": \"https://www.ratp.fr/sites/default/files/lines-assets/plan-de-ligne/metro/plan-de-ligne_metro_ligne-9.pdf\", \"label\": \"Plan M\u00e9tro 9\"}]", "schedules": "[{\"routeId\": \"route:IDFM:RATP:566-C01379-2444066\", \"from\": \"Pont de S\u00e8vres\", \"to\": \"Mairie de Montreuil\", \"first\": \"05:30\", \"last\": \"01:26\"}, {\"routeId\": \"route:IDFM:RATP:566-C01379-2444067\", \"from\": \"Mairie de Montreuil\", \"to\": \"Pont de S\u00e8vres\", \"first\": \"05:30\", \"last\": \"01:32\"}]", "stop_id": "IDFM:463190", "stop_name": "I\u00e9na", "stop_lon": "2.2938642256822708", "stop_lat": "48.864780022257456", "operatorname": "RATP", "pointgeo": {"lon": 2.2938642256822708, "lat": 48.864780022257456}, "nom_commune": "Paris", "code_insee": "75056"},{"id": "IDFM:C01379", "route_long_name": "9", "plans": "[{\"link\": \"https://www.ratp.fr/sites/default/files/lines-assets/plan-de-ligne/metro/plan-de-ligne_metro_ligne-9.pdf\", \"label\": \"Plan M\u00e9tro 9\"}]", "schedules": "[{\"routeId\": \"route:IDFM:RATP:566-C01379-2444066\", \"from\": \"Pont de S\u00e8vres\", \"to\": \"Mairie de Montreuil\", \"first\": \"05:30\", \"last\": \"01:26\"}, {\"routeId\": \"route:IDFM:RATP:566-C01379-2444067\", \"from\": \"Mairie de Montreuil\", \"to\": \"Pont de S\u00e8vres\", \"first\": \"05:30\", \"last\": \"01:32\"}]", "stop_id": "IDFM:463318", "stop_name": "Trocad\u00e9ro", "stop_lon": "2.2868262498013006", "stop_lat": "48.86308797989344", "operatorname": "RATP", "pointgeo": {"lon": 2.2868262498013006, "lat": 48.86308797989344}, "nom_commune": "Paris", "code_insee": "75056"},{"id": "IDFM:C01379", "route_long_name": "9", "plans": "[{\"link\": \"https://www.ratp.fr/sites/default/files/lines-assets/plan-de-ligne/metro/plan-de-ligne_metro_ligne-9.pdf\", \"label\": \"Plan M\u00e9tro 9\"}]", "schedules": "[{\"routeId\": \"route:IDFM:RATP:566-C01379-2444066\", \"from\": \"Pont de S\u00e8vres\", \"to\": \"Mairie de Montreuil\", \"first\": \"05:30\", \"last\": \"01:26\"}, {\"routeId\": \"route:IDFM:RATP:566-C01379-2444067\", \"from\": \"Mairie de Montreuil\", \"to\": \"Pont de S\u00e8vres\", \"first\": \"05:30\", \"last\": \"01:32\"}]", "stop_id": "IDFM:21923", "stop_name": "Michel-Ange - Molitor", "stop_lon": "2.261511916905205", "stop_lat": "48.84491122756327", "operatorname": "RATP", "pointgeo": {"lon": 2.261511916905205, "lat": 48.84491122756327}, "nom_commune": "Paris", "code_insee": "75056"},{"id": "IDFM:C01379", "route_long_name": "9", "plans": "[{\"link\": \"https://www.ratp.fr/sites/default/files/lines-assets/plan-de-ligne/metro/plan-de-ligne_metro_ligne-9.pdf\", \"label\": \"Plan M\u00e9tro 9\"}]", "schedules": "[{\"routeId\": \"route:IDFM:RATP:566-C01379-2444066\", \"from\": \"Pont de S\u00e8vres\", \"to\": \"Mairie de Montreuil\", \"first\": \"05:30\", \"last\": \"01:26\"}, {\"routeId\": \"route:IDFM:RATP:566-C01379-2444067\", \"from\": \"Mairie de Montreuil\", \"to\": \"Pont de S\u00e8vres\", \"first\": \"05:30\", \"last\": \"01:32\"}]", "stop_id": "IDFM:21939", "stop_name": "Billancourt", "stop_lon": "2.237965973200589", "stop_lat": "48.83183051284947", "operatorname": "RATP", "pointgeo": {"lon": 2.237965973200589, "lat": 48.83183051284947}, "nom_commune": "Boulogne-Billancourt", "code_insee": "92012"},{"id": "IDFM:C01379", "route_long_name": "9", "plans": "[{\"link\": \"https://www.ratp.fr/sites/default/files/lines-assets/plan-de-ligne/metro/plan-de-ligne_metro_ligne-9.pdf\", \"label\": \"Plan M\u00e9tro 9\"}]", "schedules": "[{\"routeId\": \"route:IDFM:RATP:566-C01379-2444066\", \"from\": \"Pont de S\u00e8vres\", \"to\": \"Mairie de Montreuil\", \"first\": \"05:30\", \"last\": \"01:26\"}, {\"routeId\": \"route:IDFM:RATP:566-C01379-2444067\", \"from\": \"Mairie de Montreuil\", \"to\": \"Pont de S\u00e8vres\", \"first\": \"05:30\", \"last\": \"01:32\"}]", "stop_id": "IDFM:462914", "stop_name": "Marcel Sembat", "stop_lon": "2.243583048618053", "stop_lat": "48.83359298218974", "operatorname": "RATP", "pointgeo": {"lon": 2.243583048618053, "lat": 48.83359298218974}, "nom_commune": "Boulogne-Billancourt", "code_insee": "92012"},{"id": "IDFM:C01379", "route_long_name": "9", "plans": "[{\"link\": \"https://www.ratp.fr/sites/default/files/lines-assets/plan-de-ligne/metro/plan-de-ligne_metro_ligne-9.pdf\", \"label\": \"Plan M\u00e9tro 9\"}]", "schedules": "[{\"routeId\": \"route:IDFM:RATP:566-C01379-2444066\", \"from\": \"Pont de S\u00e8vres\", \"to\": \"Mairie de Montreuil\", \"first\": \"05:30\", \"last\": \"01:26\"}, {\"routeId\": \"route:IDFM:RATP:566-C01379-2444067\", \"from\": \"Mairie de Montreuil\", \"to\": \"Pont de S\u00e8vres\", \"first\": \"05:30\", \"last\": \"01:32\"}]", "stop_id": "IDFM:463239", "stop_name": "Michel-Ange - Molitor", "stop_lon": "2.261631583355701", "stop_lat": "48.844880488259605", "operatorname": "RATP", "pointgeo": {"lon": 2.261631583355701, "lat": 48.844880488259605}, "nom_commune": "Paris", "code_insee": "75056"},{"id": "IDFM:C01379", "route_long_name": "9", "plans": "[{\"link\": \"https://www.ratp.fr/sites/default/files/lines-assets/plan-de-ligne/metro/plan-de-ligne_metro_ligne-9.pdf\", \"label\": \"Plan M\u00e9tro 9\"}]", "schedules": "[{\"routeId\": \"route:IDFM:RATP:566-C01379-2444066\", \"from\": \"Pont de S\u00e8vres\", \"to\": \"Mairie de Montreuil\", \"first\": \"05:30\", \"last\": \"01:26\"}, {\"routeId\": \"route:IDFM:RATP:566-C01379-2444067\", \"from\": \"Mairie de Montreuil\", \"to\": \"Pont de S\u00e8vres\", \"first\": \"05:30\", \"last\": \"01:32\"}]", "stop_id": "IDFM:21921", "stop_name": "Richelieu - Drouot", "stop_lon": "2.3385912215385414", "stop_lat": "48.872135870317955", "operatorname": "RATP", "pointgeo": {"lon": 2.3385912215385414, "lat": 48.872135870317955}, "nom_commune": "Paris", "code_insee": "75056"},{"id": "IDFM:C01379", "route_long_name": "9", "plans": "[{\"link\": \"https://www.ratp.fr/sites/default/files/lines-assets/plan-de-ligne/metro/plan-de-ligne_metro_ligne-9.pdf\", \"label\": \"Plan M\u00e9tro 9\"}]", "schedules": "[{\"routeId\": \"route:IDFM:RATP:566-C01379-2444066\", \"from\": \"Pont de S\u00e8vres\", \"to\": \"Mairie de Montreuil\", \"first\": \"05:30\", \"last\": \"01:26\"}, {\"routeId\": \"route:IDFM:RATP:566-C01379-2444067\", \"from\": \"Mairie de Montreuil\", \"to\": \"Pont de S\u00e8vres\", \"first\": \"05:30\", \"last\": \"01:32\"}]", "stop_id": "IDFM:21920", "stop_name": "Strasbourg - Saint-Denis", "stop_lon": "2.3537315826731833", "stop_lat": "48.869349679171926", "operatorname": "RATP", "pointgeo": {"lon": 2.3537315826731833, "lat": 48.869349679171926}, "nom_commune": "Paris", "code_insee": "75056"},{"id": "IDFM:C01379", "route_long_name": "9", "plans": "[{\"link\": \"https://www.ratp.fr/sites/default/files/lines-assets/plan-de-ligne/metro/plan-de-ligne_metro_ligne-9.pdf\", \"label\": \"Plan M\u00e9tro 9\"}]", "schedules": "[{\"routeId\": \"route:IDFM:RATP:566-C01379-2444066\", \"from\": \"Pont de S\u00e8vres\", \"to\": \"Mairie de Montreuil\", \"first\": \"05:30\", \"last\": \"01:26\"}, {\"routeId\": \"route:IDFM:RATP:566-C01379-2444067\", \"from\": \"Mairie de Montreuil\", \"to\": \"Pont de S\u00e8vres\", \"first\": \"05:30\", \"last\": \"01:32\"}]", "stop_id": "IDFM:463325", "stop_name": "Voltaire", "stop_lon": "2.3800316941488044", "stop_lat": "48.85766243438601", "operatorname": "RATP", "pointgeo": {"lon": 2.3800316941488044, "lat": 48.85766243438601}, "nom_commune": "Paris", "code_insee": "75056"},{"id": "IDFM:C01379", "route_long_name": "9", "plans": "[{\"link\": \"https://www.ratp.fr/sites/default/files/lines-assets/plan-de-ligne/metro/plan-de-ligne_metro_ligne-9.pdf\", \"label\": \"Plan M\u00e9tro 9\"}]", "schedules": "[{\"routeId\": \"route:IDFM:RATP:566-C01379-2444066\", \"from\": \"Pont de S\u00e8vres\", \"to\": \"Mairie de Montreuil\", \"first\": \"05:30\", \"last\": \"01:26\"}, {\"routeId\": \"route:IDFM:RATP:566-C01379-2444067\", \"from\": \"Mairie de Montreuil\", \"to\": \"Pont de S\u00e8vres\", \"first\": \"05:30\", \"last\": \"01:32\"}]", "stop_id": "IDFM:463143", "stop_name": "Charonne", "stop_lon": "2.384782396448888", "stop_lat": "48.854939443448494", "operatorname": "RATP", "pointgeo": {"lon": 2.384782396448888, "lat": 48.854939443448494}, "nom_commune": "Paris", "code_insee": "75056"}]