[{"id": "IDFM:C01381", "route_long_name": "11", "plans": "[{\"link\": \"https://www.ratp.fr/sites/default/files/lines-assets/plan-de-ligne/metro/plan-de-ligne_metro_ligne-11.pdf\", \"label\": \"Plan M\u00e9tro 11\"}]", "schedules": "[{\"routeId\": \"route:IDFM:RATP:127519-C01381-ITI_IDFM_C01381_A_494661422\", \"from\": \"Mairie des Lilas\", \"to\": \"Ch\u00e2telet\", \"first\": \"05:30\", \"last\": \"02:00\"}, {\"routeId\": \"route:IDFM:RATP:127519-C01381-ITI_IDFM_C01381_R_-1662020753\", \"from\": \"Ch\u00e2telet\", \"to\": \"Mairie des Lilas\", \"first\": \"05:30\", \"last\": \"02:00\"}]", "stop_id": "IDFM:21949", "stop_name": "Porte des Lilas", "stop_lon": "2.4065226763982275", "stop_lat": "48.87723143067265", "operatorname": "RATP", "pointgeo": {"lon": 2.4065226763982275, "lat": 48.87723143067265}, "nom_commune": "Paris", "code_insee": "75056"},{"id": "IDFM:C01381", "route_long_name": "11", "plans": "[{\"link\": \"https://www.ratp.fr/sites/default/files/lines-assets/plan-de-ligne/metro/plan-de-ligne_metro_ligne-11.pdf\", \"label\": \"Plan M\u00e9tro 11\"}]", "schedules": "[{\"routeId\": \"route:IDFM:RATP:127519-C01381-ITI_IDFM_C01381_A_494661422\", \"from\": \"Mairie des Lilas\", \"to\": \"Ch\u00e2telet\", \"first\": \"05:30\", \"last\": \"02:00\"}, {\"routeId\": \"route:IDFM:RATP:127519-C01381-ITI_IDFM_C01381_R_-1662020753\", \"from\": \"Ch\u00e2telet\", \"to\": \"Mairie des Lilas\", \"first\": \"05:30\", \"last\": \"02:00\"}]", "stop_id": "IDFM:463108", "stop_name": "Arts et M\u00e9tiers", "stop_lon": "2.356535223129095", "stop_lat": "48.865380699169286", "operatorname": "RATP", "pointgeo": {"lon": 2.356535223129095, "lat": 48.865380699169286}, "nom_commune": "Paris", "code_insee": "75056"},{"id": "IDFM:C01381", "route_long_name": "11", "plans": "[{\"link\": \"https://www.ratp.fr/sites/default/files/lines-assets/plan-de-ligne/metro/plan-de-ligne_metro_ligne-11.pdf\", \"label\": \"Plan M\u00e9tro 11\"}]", "schedules": "[{\"routeId\": \"route:IDFM:RATP:127519-C01381-ITI_IDFM_C01381_A_494661422\", \"from\": \"Mairie des Lilas\", \"to\": \"Ch\u00e2telet\", \"first\": \"05:30\", \"last\": \"02:00\"}, {\"routeId\": \"route:IDFM:RATP:127519-C01381-ITI_IDFM_C01381_R_-1662020753\", \"from\": \"Ch\u00e2telet\", \"to\": \"Mairie des Lilas\", \"first\": \"05:30\", \"last\": \"02:00\"}]", "stop_id": "IDFM:21992", "stop_name": "Rambuteau", "stop_lon": "2.3532739485947713", "stop_lat": "48.86119015695036", "operatorname": "RATP", "pointgeo": {"lon": 2.3532739485947713, "lat": 48.86119015695036}, "nom_commune": "Paris", "code_insee": "75056"},{"id": "IDFM:C01381", "route_long_name": "11", "plans": "[{\"link\": \"https://www.ratp.fr/sites/default/files/lines-assets/plan-de-ligne/metro/plan-de-ligne_metro_ligne-11.pdf\", \"label\": \"Plan M\u00e9tro 11\"}]", "schedules": "[{\"routeId\": \"route:IDFM:RATP:127519-C01381-ITI_IDFM_C01381_A_494661422\", \"from\": \"Mairie des Lilas\", \"to\": \"Ch\u00e2telet\", \"first\": \"05:30\", \"last\": \"02:00\"}, {\"routeId\": \"route:IDFM:RATP:127519-C01381-ITI_IDFM_C01381_R_-1662020753\", \"from\": \"Ch\u00e2telet\", \"to\": \"Mairie des Lilas\", \"first\": \"05:30\", \"last\": \"02:00\"}]", "stop_id": "IDFM:21966", "stop_name": "Ch\u00e2telet", "stop_lon": "2.3478374055687867", "stop_lat": "48.85776111354502", "operatorname": "RATP", "pointgeo": {"lon": 2.3478374055687867, "lat": 48.85776111354502}, "nom_commune": "Paris", "code_insee": "75056"},{"id": "IDFM:C01381", "route_long_name": "11", "plans": "[{\"link\": \"https://www.ratp.fr/sites/default/files/lines-assets/plan-de-ligne/metro/plan-de-ligne_metro_ligne-11.pdf\", \"label\": \"Plan M\u00e9tro 11\"}]", "schedules": "[{\"routeId\": \"route:IDFM:RATP:127519-C01381-ITI_IDFM_C01381_A_494661422\", \"from\": \"Mairie des Lilas\", \"to\": \"Ch\u00e2telet\", \"first\": \"05:30\", \"last\": \"02:00\"}, {\"routeId\": \"route:IDFM:RATP:127519-C01381-ITI_IDFM_C01381_R_-1662020753\", \"from\": \"Ch\u00e2telet\", \"to\": \"Mairie des Lilas\", \"first\": \"05:30\", \"last\": \"02:00\"}]", "stop_id": "IDFM:21990", "stop_name": "H\u00f4tel de Ville", "stop_lon": "2.35154698561547", "stop_lat": "48.85757442237991", "operatorname": "RATP", "pointgeo": {"lon": 2.35154698561547, "lat": 48.85757442237991}, "nom_commune": "Paris", "code_insee": "75056"},{"id": "IDFM:C01381", "route_long_name": "11", "plans": "[{\"link\": \"https://www.ratp.fr/sites/default/files/lines-assets/plan-de-ligne/metro/plan-de-ligne_metro_ligne-11.pdf\", \"label\": \"Plan M\u00e9tro 11\"}]", "schedules": "[{\"routeId\": \"route:IDFM:RATP:127519-C01381-ITI_IDFM_C01381_A_494661422\", \"from\": \"Mairie des Lilas\", \"to\": \"Ch\u00e2telet\", \"first\": \"05:30\", \"last\": \"02:00\"}, {\"routeId\": \"route:IDFM:RATP:127519-C01381-ITI_IDFM_C01381_R_-1662020753\", \"from\": \"Ch\u00e2telet\", \"to\": \"Mairie des Lilas\", \"first\": \"05:30\", \"last\": \"02:00\"}]", "stop_id": "IDFM:463187", "stop_name": "Goncourt", "stop_lon": "2.3710788377398995", "stop_lat": "48.869936723164365", "operatorname": "RATP", "pointgeo": {"lon": 2.3710788377398995, "lat": 48.869936723164365}, "nom_commune": "Paris", "code_insee": "75056"},{"id": "IDFM:C01381", "route_long_name": "11", "plans": "[{\"link\": \"https://www.ratp.fr/sites/default/files/lines-assets/plan-de-ligne/metro/plan-de-ligne_metro_ligne-11.pdf\", \"label\": \"Plan M\u00e9tro 11\"}]", "schedules": "[{\"routeId\": \"route:IDFM:RATP:127519-C01381-ITI_IDFM_C01381_A_494661422\", \"from\": \"Mairie des Lilas\", \"to\": \"Ch\u00e2telet\", \"first\": \"05:30\", \"last\": \"02:00\"}, {\"routeId\": \"route:IDFM:RATP:127519-C01381-ITI_IDFM_C01381_R_-1662020753\", \"from\": \"Ch\u00e2telet\", \"to\": \"Mairie des Lilas\", \"first\": \"05:30\", \"last\": \"02:00\"}]", "stop_id": "IDFM:21991", "stop_name": "Pyr\u00e9n\u00e9es", "stop_lon": "2.384883957748741", "stop_lat": "48.87381265491752", "operatorname": "RATP", "pointgeo": {"lon": 2.384883957748741, "lat": 48.87381265491752}, "nom_commune": "Paris", "code_insee": "75056"},{"id": "IDFM:C01381", "route_long_name": "11", "plans": "[{\"link\": \"https://www.ratp.fr/sites/default/files/lines-assets/plan-de-ligne/metro/plan-de-ligne_metro_ligne-11.pdf\", \"label\": \"Plan M\u00e9tro 11\"}]", "schedules": "[{\"routeId\": \"route:IDFM:RATP:127519-C01381-ITI_IDFM_C01381_A_494661422\", \"from\": \"Mairie des Lilas\", \"to\": \"Ch\u00e2telet\", \"first\": \"05:30\", \"last\": \"02:00\"}, {\"routeId\": \"route:IDFM:RATP:127519-C01381-ITI_IDFM_C01381_R_-1662020753\", \"from\": \"Ch\u00e2telet\", \"to\": \"Mairie des Lilas\", \"first\": \"05:30\", \"last\": \"02:00\"}]", "stop_id": "IDFM:463254", "stop_name": "Place des F\u00eates", "stop_lon": "2.393139370360497", "stop_lat": "48.87672366197325", "operatorname": "RATP", "pointgeo": {"lon": 2.393139370360497, "lat": 48.87672366197325}, "nom_commune": "Paris", "code_insee": "75056"},{"id": "IDFM:C01381", "route_long_name": "11", "plans": "[{\"link\": \"https://www.ratp.fr/sites/default/files/lines-assets/plan-de-ligne/metro/plan-de-ligne_metro_ligne-11.pdf\", \"label\": \"Plan M\u00e9tro 11\"}]", "schedules": "[{\"routeId\": \"route:IDFM:RATP:127519-C01381-ITI_IDFM_C01381_A_494661422\", \"from\": \"Mairie des Lilas\", \"to\": \"Ch\u00e2telet\", \"first\": \"05:30\", \"last\": \"02:00\"}, {\"routeId\": \"route:IDFM:RATP:127519-C01381-ITI_IDFM_C01381_R_-1662020753\", \"from\": \"Ch\u00e2telet\", \"to\": \"Mairie des Lilas\", \"first\": \"05:30\", \"last\": \"02:00\"}]", "stop_id": "IDFM:463319", "stop_name": "T\u00e9l\u00e9graphe", "stop_lon": "2.3986752529487725", "stop_lat": "48.875519513947125", "operatorname": "RATP", "pointgeo": {"lon": 2.3986752529487725, "lat": 48.875519513947125}, "nom_commune": "Paris", "code_insee": "75056"},{"id": "IDFM:C01381", "route_long_name": "11", "plans": "[{\"link\": \"https://www.ratp.fr/sites/default/files/lines-assets/plan-de-ligne/metro/plan-de-ligne_metro_ligne-11.pdf\", \"label\": \"Plan M\u00e9tro 11\"}]", "schedules": "[{\"routeId\": \"route:IDFM:RATP:127519-C01381-ITI_IDFM_C01381_A_494661422\", \"from\": \"Mairie des Lilas\", \"to\": \"Ch\u00e2telet\", \"first\": \"05:30\", \"last\": \"02:00\"}, {\"routeId\": \"route:IDFM:RATP:127519-C01381-ITI_IDFM_C01381_R_-1662020753\", \"from\": \"Ch\u00e2telet\", \"to\": \"Mairie des Lilas\", \"first\": \"05:30\", \"last\": \"02:00\"}]", "stop_id": "IDFM:463263", "stop_name": "Porte des Lilas", "stop_lon": "2.4065226763982275", "stop_lat": "48.87723143067265", "operatorname": "RATP", "pointgeo": {"lon": 2.4065226763982275, "lat": 48.87723143067265}, "nom_commune": "Paris", "code_insee": "75056"},{"id": "IDFM:C01381", "route_long_name": "11", "plans": "[{\"link\": \"https://www.ratp.fr/sites/default/files/lines-assets/plan-de-ligne/metro/plan-de-ligne_metro_ligne-11.pdf\", \"label\": \"Plan M\u00e9tro 11\"}]", "schedules": "[{\"routeId\": \"route:IDFM:RATP:127519-C01381-ITI_IDFM_C01381_A_494661422\", \"from\": \"Mairie des Lilas\", \"to\": \"Ch\u00e2telet\", \"first\": \"05:30\", \"last\": \"02:00\"}, {\"routeId\": \"route:IDFM:RATP:127519-C01381-ITI_IDFM_C01381_R_-1662020753\", \"from\": \"Ch\u00e2telet\", \"to\": \"Mairie des Lilas\", \"first\": \"05:30\", \"last\": \"02:00\"}]", "stop_id": "IDFM:463287", "stop_name": "Pyr\u00e9n\u00e9es", "stop_lon": "2.3852029155695313", "stop_lat": "48.87381879018058", "operatorname": "RATP", "pointgeo": {"lon": 2.3852029155695313, "lat": 48.87381879018058}, "nom_commune": "Paris", "code_insee": "75056"},{"id": "IDFM:C01381", "route_long_name": "11", "plans": "[{\"link\": \"https://www.ratp.fr/sites/default/files/lines-assets/plan-de-ligne/metro/plan-de-ligne_metro_ligne-11.pdf\", \"label\": \"Plan M\u00e9tro 11\"}]", "schedules": "[{\"routeId\": \"route:IDFM:RATP:127519-C01381-ITI_IDFM_C01381_A_494661422\", \"from\": \"Mairie des Lilas\", \"to\": \"Ch\u00e2telet\", \"first\": \"05:30\", \"last\": \"02:00\"}, {\"routeId\": \"route:IDFM:RATP:127519-C01381-ITI_IDFM_C01381_R_-1662020753\", \"from\": \"Ch\u00e2telet\", \"to\": \"Mairie des Lilas\", \"first\": \"05:30\", \"last\": \"02:00\"}]", "stop_id": "IDFM:463079", "stop_name": "Ch\u00e2telet", "stop_lon": "2.347759259772123", "stop_lat": "48.8576887395772", "operatorname": "RATP", "pointgeo": {"lon": 2.347759259772123, "lat": 48.8576887395772}, "nom_commune": "Paris", "code_insee": "75056"},{"id": "IDFM:C01381", "route_long_name": "11", "plans": "[{\"link\": \"https://www.ratp.fr/sites/default/files/lines-assets/plan-de-ligne/metro/plan-de-ligne_metro_ligne-11.pdf\", \"label\": \"Plan M\u00e9tro 11\"}]", "schedules": "[{\"routeId\": \"route:IDFM:RATP:127519-C01381-ITI_IDFM_C01381_A_494661422\", \"from\": \"Mairie des Lilas\", \"to\": \"Ch\u00e2telet\", \"first\": \"05:30\", \"last\": \"02:00\"}, {\"routeId\": \"route:IDFM:RATP:127519-C01381-ITI_IDFM_C01381_R_-1662020753\", \"from\": \"Ch\u00e2telet\", \"to\": \"Mairie des Lilas\", \"first\": \"05:30\", \"last\": \"02:00\"}]", "stop_id": "IDFM:463223", "stop_name": "Mairie des Lilas", "stop_lon": "2.4163499077398614", "stop_lat": "48.879658467973904", "operatorname": "RATP", "pointgeo": {"lon": 2.4163499077398614, "lat": 48.879658467973904}, "nom_commune": "Les Lilas", "code_insee": "93045"},{"id": "IDFM:C01381", "route_long_name": "11", "plans": "[{\"link\": \"https://www.ratp.fr/sites/default/files/lines-assets/plan-de-ligne/metro/plan-de-ligne_metro_ligne-11.pdf\", \"label\": \"Plan M\u00e9tro 11\"}]", "schedules": "[{\"routeId\": \"route:IDFM:RATP:127519-C01381-ITI_IDFM_C01381_A_494661422\", \"from\": \"Mairie des Lilas\", \"to\": \"Ch\u00e2telet\", \"first\": \"05:30\", \"last\": \"02:00\"}, {\"routeId\": \"route:IDFM:RATP:127519-C01381-ITI_IDFM_C01381_R_-1662020753\", \"from\": \"Ch\u00e2telet\", \"to\": \"Mairie des Lilas\", \"first\": \"05:30\", \"last\": \"02:00\"}]", "stop_id": "IDFM:21999", "stop_name": "Mairie des Lilas", "stop_lon": "2.4162978208011863", "stop_lat": "48.87974365006289", "operatorname": "RATP", "pointgeo": {"lon": 2.4162978208011863, "lat": 48.87974365006289}, "nom_commune": "Les Lilas", "code_insee": "93045"},{"id": "IDFM:C01381", "route_long_name": "11", "plans": "[{\"link\": \"https://www.ratp.fr/sites/default/files/lines-assets/plan-de-ligne/metro/plan-de-ligne_metro_ligne-11.pdf\", \"label\": \"Plan M\u00e9tro 11\"}]", "schedules": "[{\"routeId\": \"route:IDFM:RATP:127519-C01381-ITI_IDFM_C01381_A_494661422\", \"from\": \"Mairie des Lilas\", \"to\": \"Ch\u00e2telet\", \"first\": \"05:30\", \"last\": \"02:00\"}, {\"routeId\": \"route:IDFM:RATP:127519-C01381-ITI_IDFM_C01381_R_-1662020753\", \"from\": \"Ch\u00e2telet\", \"to\": \"Mairie des Lilas\", \"first\": \"05:30\", \"last\": \"02:00\"}]", "stop_id": "IDFM:21951", "stop_name": "Place des F\u00eates", "stop_lon": "2.393139370360497", "stop_lat": "48.87672366197325", "operatorname": "RATP", "pointgeo": {"lon": 2.393139370360497, "lat": 48.87672366197325}, "nom_commune": "Paris", "code_insee": "75056"},{"id": "IDFM:C01381", "route_long_name": "11", "plans": "[{\"link\": \"https://www.ratp.fr/sites/default/files/lines-assets/plan-de-ligne/metro/plan-de-ligne_metro_ligne-11.pdf\", \"label\": \"Plan M\u00e9tro 11\"}]", "schedules": "[{\"routeId\": \"route:IDFM:RATP:127519-C01381-ITI_IDFM_C01381_A_494661422\", \"from\": \"Mairie des Lilas\", \"to\": \"Ch\u00e2telet\", \"first\": \"05:30\", \"last\": \"02:00\"}, {\"routeId\": \"route:IDFM:RATP:127519-C01381-ITI_IDFM_C01381_R_-1662020753\", \"from\": \"Ch\u00e2telet\", \"to\": \"Mairie des Lilas\", \"first\": \"05:30\", \"last\": \"02:00\"}]", "stop_id": "IDFM:463110", "stop_name": "Belleville", "stop_lon": "2.376684607718542", "stop_lat": "48.87198955568015", "operatorname": "RATP", "pointgeo": {"lon": 2.376684607718542, "lat": 48.87198955568015}, "nom_commune": "Paris", "code_insee": "75056"},{"id": "IDFM:C01381", "route_long_name": "11", "plans": "[{\"link\": \"https://www.ratp.fr/sites/default/files/lines-assets/plan-de-ligne/metro/plan-de-ligne_metro_ligne-11.pdf\", \"label\": \"Plan M\u00e9tro 11\"}]", "schedules": "[{\"routeId\": \"route:IDFM:RATP:127519-C01381-ITI_IDFM_C01381_A_494661422\", \"from\": \"Mairie des Lilas\", \"to\": \"Ch\u00e2telet\", \"first\": \"05:30\", \"last\": \"02:00\"}, {\"routeId\": \"route:IDFM:RATP:127519-C01381-ITI_IDFM_C01381_R_-1662020753\", \"from\": \"Ch\u00e2telet\", \"to\": \"Mairie des Lilas\", \"first\": \"05:30\", \"last\": \"02:00\"}]", "stop_id": "IDFM:21997", "stop_name": "Arts et M\u00e9tiers", "stop_lon": "2.3565081436435467", "stop_lat": "48.86529961264491", "operatorname": "RATP", "pointgeo": {"lon": 2.3565081436435467, "lat": 48.86529961264491}, "nom_commune": "Paris", "code_insee": "75056"},{"id": "IDFM:C01381", "route_long_name": "11", "plans": "[{\"link\": \"https://www.ratp.fr/sites/default/files/lines-assets/plan-de-ligne/metro/plan-de-ligne_metro_ligne-11.pdf\", \"label\": \"Plan M\u00e9tro 11\"}]", "schedules": "[{\"routeId\": \"route:IDFM:RATP:127519-C01381-ITI_IDFM_C01381_A_494661422\", \"from\": \"Mairie des Lilas\", \"to\": \"Ch\u00e2telet\", \"first\": \"05:30\", \"last\": \"02:00\"}, {\"routeId\": \"route:IDFM:RATP:127519-C01381-ITI_IDFM_C01381_R_-1662020753\", \"from\": \"Ch\u00e2telet\", \"to\": \"Mairie des Lilas\", \"first\": \"05:30\", \"last\": \"02:00\"}]", "stop_id": "IDFM:462960", "stop_name": "R\u00e9publique", "stop_lon": "2.3648796725347783", "stop_lat": "48.86788497134881", "operatorname": "RATP", "pointgeo": {"lon": 2.3648796725347783, "lat": 48.86788497134881}, "nom_commune": "Paris", "code_insee": "75056"},{"id": "IDFM:C01381", "route_long_name": "11", "plans": "[{\"link\": \"https://www.ratp.fr/sites/default/files/lines-assets/plan-de-ligne/metro/plan-de-ligne_metro_ligne-11.pdf\", \"label\": \"Plan M\u00e9tro 11\"}]", "schedules": "[{\"routeId\": \"route:IDFM:RATP:127519-C01381-ITI_IDFM_C01381_A_494661422\", \"from\": \"Mairie des Lilas\", \"to\": \"Ch\u00e2telet\", \"first\": \"05:30\", \"last\": \"02:00\"}, {\"routeId\": \"route:IDFM:RATP:127519-C01381-ITI_IDFM_C01381_R_-1662020753\", \"from\": \"Ch\u00e2telet\", \"to\": \"Mairie des Lilas\", \"first\": \"05:30\", \"last\": \"02:00\"}]", "stop_id": "IDFM:21998", "stop_name": "Belleville", "stop_lon": "2.376753738418521", "stop_lat": "48.871908975367674", "operatorname": "RATP", "pointgeo": {"lon": 2.376753738418521, "lat": 48.871908975367674}, "nom_commune": "Paris", "code_insee": "75056"},{"id": "IDFM:C01381", "route_long_name": "11", "plans": "[{\"link\": \"https://www.ratp.fr/sites/default/files/lines-assets/plan-de-ligne/metro/plan-de-ligne_metro_ligne-11.pdf\", \"label\": \"Plan M\u00e9tro 11\"}]", "schedules": "[{\"routeId\": \"route:IDFM:RATP:127519-C01381-ITI_IDFM_C01381_A_494661422\", \"from\": \"Mairie des Lilas\", \"to\": \"Ch\u00e2telet\", \"first\": \"05:30\", \"last\": \"02:00\"}, {\"routeId\": \"route:IDFM:RATP:127519-C01381-ITI_IDFM_C01381_R_-1662020753\", \"from\": \"Ch\u00e2telet\", \"to\": \"Mairie des Lilas\", \"first\": \"05:30\", \"last\": \"02:00\"}]", "stop_id": "IDFM:21995", "stop_name": "Jourdain", "stop_lon": "2.389325378910096", "stop_lat": "48.875247348641416", "operatorname": "RATP", "pointgeo": {"lon": 2.389325378910096, "lat": 48.875247348641416}, "nom_commune": "Paris", "code_insee": "75056"},{"id": "IDFM:C01381", "route_long_name": "11", "plans": "[{\"link\": \"https://www.ratp.fr/sites/default/files/lines-assets/plan-de-ligne/metro/plan-de-ligne_metro_ligne-11.pdf\", \"label\": \"Plan M\u00e9tro 11\"}]", "schedules": "[{\"routeId\": \"route:IDFM:RATP:127519-C01381-ITI_IDFM_C01381_A_494661422\", \"from\": \"Mairie des Lilas\", \"to\": \"Ch\u00e2telet\", \"first\": \"05:30\", \"last\": \"02:00\"}, {\"routeId\": \"route:IDFM:RATP:127519-C01381-ITI_IDFM_C01381_R_-1662020753\", \"from\": \"Ch\u00e2telet\", \"to\": \"Mairie des Lilas\", \"first\": \"05:30\", \"last\": \"02:00\"}]", "stop_id": "IDFM:21996", "stop_name": "Goncourt", "stop_lon": "2.3707644347484003", "stop_lat": "48.8700070178386", "operatorname": "RATP", "pointgeo": {"lon": 2.3707644347484003, "lat": 48.8700070178386}, "nom_commune": "Paris", "code_insee": "75056"},{"id": "IDFM:C01381", "route_long_name": "11", "plans": "[{\"link\": \"https://www.ratp.fr/sites/default/files/lines-assets/plan-de-ligne/metro/plan-de-ligne_metro_ligne-11.pdf\", \"label\": \"Plan M\u00e9tro 11\"}]", "schedules": "[{\"routeId\": \"route:IDFM:RATP:127519-C01381-ITI_IDFM_C01381_A_494661422\", \"from\": \"Mairie des Lilas\", \"to\": \"Ch\u00e2telet\", \"first\": \"05:30\", \"last\": \"02:00\"}, {\"routeId\": \"route:IDFM:RATP:127519-C01381-ITI_IDFM_C01381_R_-1662020753\", \"from\": \"Ch\u00e2telet\", \"to\": \"Mairie des Lilas\", \"first\": \"05:30\", \"last\": \"02:00\"}]", "stop_id": "IDFM:462945", "stop_name": "Rambuteau", "stop_lon": "2.3532739485947713", "stop_lat": "48.86119015695036", "operatorname": "RATP", "pointgeo": {"lon": 2.3532739485947713, "lat": 48.86119015695036}, "nom_commune": "Paris", "code_insee": "75056"},{"id": "IDFM:C01381", "route_long_name": "11", "plans": "[{\"link\": \"https://www.ratp.fr/sites/default/files/lines-assets/plan-de-ligne/metro/plan-de-ligne_metro_ligne-11.pdf\", \"label\": \"Plan M\u00e9tro 11\"}]", "schedules": "[{\"routeId\": \"route:IDFM:RATP:127519-C01381-ITI_IDFM_C01381_A_494661422\", \"from\": \"Mairie des Lilas\", \"to\": \"Ch\u00e2telet\", \"first\": \"05:30\", \"last\": \"02:00\"}, {\"routeId\": \"route:IDFM:RATP:127519-C01381-ITI_IDFM_C01381_R_-1662020753\", \"from\": \"Ch\u00e2telet\", \"to\": \"Mairie des Lilas\", \"first\": \"05:30\", \"last\": \"02:00\"}]", "stop_id": "IDFM:463192", "stop_name": "Jourdain", "stop_lon": "2.389325378910096", "stop_lat": "48.875247348641416", "operatorname": "RATP", "pointgeo": {"lon": 2.389325378910096, "lat": 48.875247348641416}, "nom_commune": "Paris", "code_insee": "75056"},{"id": "IDFM:C01381", "route_long_name": "11", "plans": "[{\"link\": \"https://www.ratp.fr/sites/default/files/lines-assets/plan-de-ligne/metro/plan-de-ligne_metro_ligne-11.pdf\", \"label\": \"Plan M\u00e9tro 11\"}]", "schedules": "[{\"routeId\": \"route:IDFM:RATP:127519-C01381-ITI_IDFM_C01381_A_494661422\", \"from\": \"Mairie des Lilas\", \"to\": \"Ch\u00e2telet\", \"first\": \"05:30\", \"last\": \"02:00\"}, {\"routeId\": \"route:IDFM:RATP:127519-C01381-ITI_IDFM_C01381_R_-1662020753\", \"from\": \"Ch\u00e2telet\", \"to\": \"Mairie des Lilas\", \"first\": \"05:30\", \"last\": \"02:00\"}]", "stop_id": "IDFM:21993", "stop_name": "T\u00e9l\u00e9graphe", "stop_lon": "2.3986480899605933", "stop_lat": "48.87551038418075", "operatorname": "RATP", "pointgeo": {"lon": 2.3986480899605933, "lat": 48.87551038418075}, "nom_commune": "Paris", "code_insee": "75056"},{"id": "IDFM:C01381", "route_long_name": "11", "plans": "[{\"link\": \"https://www.ratp.fr/sites/default/files/lines-assets/plan-de-ligne/metro/plan-de-ligne_metro_ligne-11.pdf\", \"label\": \"Plan M\u00e9tro 11\"}]", "schedules": "[{\"routeId\": \"route:IDFM:RATP:127519-C01381-ITI_IDFM_C01381_A_494661422\", \"from\": \"Mairie des Lilas\", \"to\": \"Ch\u00e2telet\", \"first\": \"05:30\", \"last\": \"02:00\"}, {\"routeId\": \"route:IDFM:RATP:127519-C01381-ITI_IDFM_C01381_R_-1662020753\", \"from\": \"Ch\u00e2telet\", \"to\": \"Mairie des Lilas\", \"first\": \"05:30\", \"last\": \"02:00\"}]", "stop_id": "IDFM:21937", "stop_name": "R\u00e9publique", "stop_lon": "2.364804805140413", "stop_lat": "48.86794303120089", "operatorname": "RATP", "pointgeo": {"lon": 2.364804805140413, "lat": 48.86794303120089}, "nom_commune": "Paris", "code_insee": "75056"},{"id": "IDFM:C01381", "route_long_name": "11", "plans": "[{\"link\": \"https://www.ratp.fr/sites/default/files/lines-assets/plan-de-ligne/metro/plan-de-ligne_metro_ligne-11.pdf\", \"label\": \"Plan M\u00e9tro 11\"}]", "schedules": "[{\"routeId\": \"route:IDFM:RATP:127519-C01381-ITI_IDFM_C01381_A_494661422\", \"from\": \"Mairie des Lilas\", \"to\": \"Ch\u00e2telet\", \"first\": \"05:30\", \"last\": \"02:00\"}, {\"routeId\": \"route:IDFM:RATP:127519-C01381-ITI_IDFM_C01381_R_-1662020753\", \"from\": \"Ch\u00e2telet\", \"to\": \"Mairie des Lilas\", \"first\": \"05:30\", \"last\": \"02:00\"}]", "stop_id": "IDFM:463061", "stop_name": "H\u00f4tel de Ville", "stop_lon": "2.3514239919428728", "stop_lat": "48.85760073633446", "operatorname": "RATP", "pointgeo": {"lon": 2.3514239919428728, "lat": 48.85760073633446}, "nom_commune": "Paris", "code_insee": "75056"}]