[{"id": "IDFM:C01374", "route_long_name": "4", "plans": "[{\"link\": \"https://www.ratp.fr/sites/default/files/lines-assets/plan-de-ligne/metro/plan-de-ligne_metro_ligne-4.pdf\", \"label\": \"Plan M\u00e9tro 4\"}]", "schedules": "[{\"routeId\": \"route:IDFM:RATP:107752-C01374-ITI_IDFM_C01374_A_-401577644\", \"from\": \"Porte de Clignancourt\", \"to\": \"Bagneux - Lucie Aubrac\", \"first\": \"05:30\", \"last\": \"00:40\"}, {\"routeId\": \"route:IDFM:RATP:122980-C01374-ITI_IDFM_C01374_R_2029615734\", \"from\": \"Bagneux - Lucie Aubrac\", \"to\": \"Porte de Clignancourt\", \"first\": \"05:30\", \"last\": \"00:40\"}]", "stop_id": "IDFM:462979", "stop_name": "Ch\u00e2teau d'Eau", "stop_lon": "2.3559014497805357", "stop_lat": "48.87247308911766", "operatorname": "RATP", "pointgeo": {"lon": 2.3559014497805357, "lat": 48.87247308911766}, "nom_commune": "Paris", "code_insee": "75056"},{"id": "IDFM:C01374", "route_long_name": "4", "plans": "[{\"link\": \"https://www.ratp.fr/sites/default/files/lines-assets/plan-de-ligne/metro/plan-de-ligne_metro_ligne-4.pdf\", \"label\": \"Plan M\u00e9tro 4\"}]", "schedules": "[{\"routeId\": \"route:IDFM:RATP:107752-C01374-ITI_IDFM_C01374_A_-401577644\", \"from\": \"Porte de Clignancourt\", \"to\": \"Bagneux - Lucie Aubrac\", \"first\": \"05:30\", \"last\": \"00:40\"}, {\"routeId\": \"route:IDFM:RATP:122980-C01374-ITI_IDFM_C01374_R_2029615734\", \"from\": \"Bagneux - Lucie Aubrac\", \"to\": \"Porte de Clignancourt\", \"first\": \"05:30\", \"last\": \"00:40\"}]", "stop_id": "IDFM:463313", "stop_name": "Strasbourg - Saint-Denis", "stop_lon": "2.3543411093711257", "stop_lat": "48.86966773787259", "operatorname": "RATP", "pointgeo": {"lon": 2.3543411093711257, "lat": 48.86966773787259}, "nom_commune": "Paris", "code_insee": "75056"},{"id": "IDFM:C01374", "route_long_name": "4", "plans": "[{\"link\": \"https://www.ratp.fr/sites/default/files/lines-assets/plan-de-ligne/metro/plan-de-ligne_metro_ligne-4.pdf\", \"label\": \"Plan M\u00e9tro 4\"}]", "schedules": "[{\"routeId\": \"route:IDFM:RATP:107752-C01374-ITI_IDFM_C01374_A_-401577644\", \"from\": \"Porte de Clignancourt\", \"to\": \"Bagneux - Lucie Aubrac\", \"first\": \"05:30\", \"last\": \"00:40\"}, {\"routeId\": \"route:IDFM:RATP:122980-C01374-ITI_IDFM_C01374_R_2029615734\", \"from\": \"Bagneux - Lucie Aubrac\", \"to\": \"Porte de Clignancourt\", \"first\": \"05:30\", \"last\": \"00:40\"}]", "stop_id": "IDFM:462995", "stop_name": "Od\u00e9on", "stop_lon": "2.3395157696170745", "stop_lat": "48.852175453081486", "operatorname": "RATP", "pointgeo": {"lon": 2.3395157696170745, "lat": 48.852175453081486}, "nom_commune": "Paris", "code_insee": "75056"},{"id": "IDFM:C01374", "route_long_name": "4", "plans": "[{\"link\": \"https://www.ratp.fr/sites/default/files/lines-assets/plan-de-ligne/metro/plan-de-ligne_metro_ligne-4.pdf\", \"label\": \"Plan M\u00e9tro 4\"}]", "schedules": "[{\"routeId\": \"route:IDFM:RATP:107752-C01374-ITI_IDFM_C01374_A_-401577644\", \"from\": \"Porte de Clignancourt\", \"to\": \"Bagneux - Lucie Aubrac\", \"first\": \"05:30\", \"last\": \"00:40\"}, {\"routeId\": \"route:IDFM:RATP:122980-C01374-ITI_IDFM_C01374_R_2029615734\", \"from\": \"Bagneux - Lucie Aubrac\", \"to\": \"Porte de Clignancourt\", \"first\": \"05:30\", \"last\": \"00:40\"}]", "stop_id": "IDFM:22139", "stop_name": "Saint-Sulpice", "stop_lon": "2.330611953081543", "stop_lat": "48.85120862756671", "operatorname": "RATP", "pointgeo": {"lon": 2.330611953081543, "lat": 48.85120862756671}, "nom_commune": "Paris", "code_insee": "75056"},{"id": "IDFM:C01374", "route_long_name": "4", "plans": "[{\"link\": \"https://www.ratp.fr/sites/default/files/lines-assets/plan-de-ligne/metro/plan-de-ligne_metro_ligne-4.pdf\", \"label\": \"Plan M\u00e9tro 4\"}]", "schedules": "[{\"routeId\": \"route:IDFM:RATP:107752-C01374-ITI_IDFM_C01374_A_-401577644\", \"from\": \"Porte de Clignancourt\", \"to\": \"Bagneux - Lucie Aubrac\", \"first\": \"05:30\", \"last\": \"00:40\"}, {\"routeId\": \"route:IDFM:RATP:122980-C01374-ITI_IDFM_C01374_R_2029615734\", \"from\": \"Bagneux - Lucie Aubrac\", \"to\": \"Porte de Clignancourt\", \"first\": \"05:30\", \"last\": \"00:40\"}]", "stop_id": "IDFM:22143", "stop_name": "Montparnasse Bienvenue", "stop_lon": "2.3243294607791096", "stop_lat": "48.84385251452581", "operatorname": "RATP", "pointgeo": {"lon": 2.3243294607791096, "lat": 48.84385251452581}, "nom_commune": "Paris", "code_insee": "75056"},{"id": "IDFM:C01374", "route_long_name": "4", "plans": "[{\"link\": \"https://www.ratp.fr/sites/default/files/lines-assets/plan-de-ligne/metro/plan-de-ligne_metro_ligne-4.pdf\", \"label\": \"Plan M\u00e9tro 4\"}]", "schedules": "[{\"routeId\": \"route:IDFM:RATP:107752-C01374-ITI_IDFM_C01374_A_-401577644\", \"from\": \"Porte de Clignancourt\", \"to\": \"Bagneux - Lucie Aubrac\", \"first\": \"05:30\", \"last\": \"00:40\"}, {\"routeId\": \"route:IDFM:RATP:122980-C01374-ITI_IDFM_C01374_R_2029615734\", \"from\": \"Bagneux - Lucie Aubrac\", \"to\": \"Porte de Clignancourt\", \"first\": \"05:30\", \"last\": \"00:40\"}]", "stop_id": "IDFM:22131", "stop_name": "Raspail", "stop_lon": "2.330466993719873", "stop_lat": "48.83915635952557", "operatorname": "RATP", "pointgeo": {"lon": 2.330466993719873, "lat": 48.83915635952557}, "nom_commune": "Paris", "code_insee": "75056"},{"id": "IDFM:C01374", "route_long_name": "4", "plans": "[{\"link\": \"https://www.ratp.fr/sites/default/files/lines-assets/plan-de-ligne/metro/plan-de-ligne_metro_ligne-4.pdf\", \"label\": \"Plan M\u00e9tro 4\"}]", "schedules": "[{\"routeId\": \"route:IDFM:RATP:107752-C01374-ITI_IDFM_C01374_A_-401577644\", \"from\": \"Porte de Clignancourt\", \"to\": \"Bagneux - Lucie Aubrac\", \"first\": \"05:30\", \"last\": \"00:40\"}, {\"routeId\": \"route:IDFM:RATP:122980-C01374-ITI_IDFM_C01374_R_2029615734\", \"from\": \"Bagneux - Lucie Aubrac\", \"to\": \"Porte de Clignancourt\", \"first\": \"05:30\", \"last\": \"00:40\"}]", "stop_id": "IDFM:463104", "stop_name": "Denfert-Rochereau", "stop_lon": "2.332018835216387", "stop_lat": "48.83394869369227", "operatorname": "RATP", "pointgeo": {"lon": 2.332018835216387, "lat": 48.83394869369227}, "nom_commune": "Paris", "code_insee": "75056"},{"id": "IDFM:C01374", "route_long_name": "4", "plans": "[{\"link\": \"https://www.ratp.fr/sites/default/files/lines-assets/plan-de-ligne/metro/plan-de-ligne_metro_ligne-4.pdf\", \"label\": \"Plan M\u00e9tro 4\"}]", "schedules": "[{\"routeId\": \"route:IDFM:RATP:107752-C01374-ITI_IDFM_C01374_A_-401577644\", \"from\": \"Porte de Clignancourt\", \"to\": \"Bagneux - Lucie Aubrac\", \"first\": \"05:30\", \"last\": \"00:40\"}, {\"routeId\": \"route:IDFM:RATP:122980-C01374-ITI_IDFM_C01374_R_2029615734\", \"from\": \"Bagneux - Lucie Aubrac\", \"to\": \"Porte de Clignancourt\", \"first\": \"05:30\", \"last\": \"00:40\"}]", "stop_id": "IDFM:26602", "stop_name": "Mairie de Montrouge", "stop_lon": "2.319523835754741", "stop_lat": "48.818471900073675", "operatorname": "RATP", "pointgeo": {"lon": 2.319523835754741, "lat": 48.818471900073675}, "nom_commune": "Montrouge", "code_insee": "92049"},{"id": "IDFM:C01374", "route_long_name": "4", "plans": "[{\"link\": \"https://www.ratp.fr/sites/default/files/lines-assets/plan-de-ligne/metro/plan-de-ligne_metro_ligne-4.pdf\", \"label\": \"Plan M\u00e9tro 4\"}]", "schedules": "[{\"routeId\": \"route:IDFM:RATP:107752-C01374-ITI_IDFM_C01374_A_-401577644\", \"from\": \"Porte de Clignancourt\", \"to\": \"Bagneux - Lucie Aubrac\", \"first\": \"05:30\", \"last\": \"00:40\"}, {\"routeId\": \"route:IDFM:RATP:122980-C01374-ITI_IDFM_C01374_R_2029615734\", \"from\": \"Bagneux - Lucie Aubrac\", \"to\": \"Porte de Clignancourt\", \"first\": \"05:30\", \"last\": \"00:40\"}]", "stop_id": "IDFM:483279", "stop_name": "Bagneux - Lucie Aubrac", "stop_lon": "2.3173900542429133", "stop_lat": "48.80356582047439", "operatorname": "RATP", "pointgeo": {"lon": 2.3173900542429133, "lat": 48.80356582047439}, "nom_commune": "Bagneux", "code_insee": "92007"},{"id": "IDFM:C01374", "route_long_name": "4", "plans": "[{\"link\": \"https://www.ratp.fr/sites/default/files/lines-assets/plan-de-ligne/metro/plan-de-ligne_metro_ligne-4.pdf\", \"label\": \"Plan M\u00e9tro 4\"}]", "schedules": "[{\"routeId\": \"route:IDFM:RATP:107752-C01374-ITI_IDFM_C01374_A_-401577644\", \"from\": \"Porte de Clignancourt\", \"to\": \"Bagneux - Lucie Aubrac\", \"first\": \"05:30\", \"last\": \"00:40\"}, {\"routeId\": \"route:IDFM:RATP:122980-C01374-ITI_IDFM_C01374_R_2029615734\", \"from\": \"Bagneux - Lucie Aubrac\", \"to\": \"Porte de Clignancourt\", \"first\": \"05:30\", \"last\": \"00:40\"}]", "stop_id": "IDFM:462996", "stop_name": "Montparnasse Bienvenue", "stop_lon": "2.3243858698057784", "stop_lat": "48.84391578859517", "operatorname": "RATP", "pointgeo": {"lon": 2.3243858698057784, "lat": 48.84391578859517}, "nom_commune": "Paris", "code_insee": "75056"},{"id": "IDFM:C01374", "route_long_name": "4", "plans": "[{\"link\": \"https://www.ratp.fr/sites/default/files/lines-assets/plan-de-ligne/metro/plan-de-ligne_metro_ligne-4.pdf\", \"label\": \"Plan M\u00e9tro 4\"}]", "schedules": "[{\"routeId\": \"route:IDFM:RATP:107752-C01374-ITI_IDFM_C01374_A_-401577644\", \"from\": \"Porte de Clignancourt\", \"to\": \"Bagneux - Lucie Aubrac\", \"first\": \"05:30\", \"last\": \"00:40\"}, {\"routeId\": \"route:IDFM:RATP:122980-C01374-ITI_IDFM_C01374_R_2029615734\", \"from\": \"Bagneux - Lucie Aubrac\", \"to\": \"Porte de Clignancourt\", \"first\": \"05:30\", \"last\": \"00:40\"}]", "stop_id": "IDFM:22145", "stop_name": "Od\u00e9on", "stop_lon": "2.339486020317896", "stop_lat": "48.85210334038093", "operatorname": "RATP", "pointgeo": {"lon": 2.339486020317896, "lat": 48.85210334038093}, "nom_commune": "Paris", "code_insee": "75056"},{"id": "IDFM:C01374", "route_long_name": "4", "plans": "[{\"link\": \"https://www.ratp.fr/sites/default/files/lines-assets/plan-de-ligne/metro/plan-de-ligne_metro_ligne-4.pdf\", \"label\": \"Plan M\u00e9tro 4\"}]", "schedules": "[{\"routeId\": \"route:IDFM:RATP:107752-C01374-ITI_IDFM_C01374_A_-401577644\", \"from\": \"Porte de Clignancourt\", \"to\": \"Bagneux - Lucie Aubrac\", \"first\": \"05:30\", \"last\": \"00:40\"}, {\"routeId\": \"route:IDFM:RATP:122980-C01374-ITI_IDFM_C01374_R_2029615734\", \"from\": \"Bagneux - Lucie Aubrac\", \"to\": \"Porte de Clignancourt\", \"first\": \"05:30\", \"last\": \"00:40\"}]", "stop_id": "IDFM:463158", "stop_name": "Ch\u00e2telet", "stop_lon": "2.3467600097151675", "stop_lat": "48.85971581985686", "operatorname": "RATP", "pointgeo": {"lon": 2.3467600097151675, "lat": 48.85971581985686}, "nom_commune": "Paris", "code_insee": "75056"},{"id": "IDFM:C01374", "route_long_name": "4", "plans": "[{\"link\": \"https://www.ratp.fr/sites/default/files/lines-assets/plan-de-ligne/metro/plan-de-ligne_metro_ligne-4.pdf\", \"label\": \"Plan M\u00e9tro 4\"}]", "schedules": "[{\"routeId\": \"route:IDFM:RATP:107752-C01374-ITI_IDFM_C01374_A_-401577644\", \"from\": \"Porte de Clignancourt\", \"to\": \"Bagneux - Lucie Aubrac\", \"first\": \"05:30\", \"last\": \"00:40\"}, {\"routeId\": \"route:IDFM:RATP:122980-C01374-ITI_IDFM_C01374_R_2029615734\", \"from\": \"Bagneux - Lucie Aubrac\", \"to\": \"Porte de Clignancourt\", \"first\": \"05:30\", \"last\": \"00:40\"}]", "stop_id": "IDFM:463022", "stop_name": "Gare de l'Est", "stop_lon": "2.3578981321043053", "stop_lat": "48.876283511884786", "operatorname": "RATP", "pointgeo": {"lon": 2.3578981321043053, "lat": 48.876283511884786}, "nom_commune": "Paris", "code_insee": "75056"},{"id": "IDFM:C01374", "route_long_name": "4", "plans": "[{\"link\": \"https://www.ratp.fr/sites/default/files/lines-assets/plan-de-ligne/metro/plan-de-ligne_metro_ligne-4.pdf\", \"label\": \"Plan M\u00e9tro 4\"}]", "schedules": "[{\"routeId\": \"route:IDFM:RATP:107752-C01374-ITI_IDFM_C01374_A_-401577644\", \"from\": \"Porte de Clignancourt\", \"to\": \"Bagneux - Lucie Aubrac\", \"first\": \"05:30\", \"last\": \"00:40\"}, {\"routeId\": \"route:IDFM:RATP:122980-C01374-ITI_IDFM_C01374_R_2029615734\", \"from\": \"Bagneux - Lucie Aubrac\", \"to\": \"Porte de Clignancourt\", \"first\": \"05:30\", \"last\": \"00:40\"}]", "stop_id": "IDFM:463093", "stop_name": "Barb\u00e8s - Rochechouart", "stop_lon": "2.3497455480753806", "stop_lat": "48.88342517173516", "operatorname": "RATP", "pointgeo": {"lon": 2.3497455480753806, "lat": 48.88342517173516}, "nom_commune": "Paris", "code_insee": "75056"},{"id": "IDFM:C01374", "route_long_name": "4", "plans": "[{\"link\": \"https://www.ratp.fr/sites/default/files/lines-assets/plan-de-ligne/metro/plan-de-ligne_metro_ligne-4.pdf\", \"label\": \"Plan M\u00e9tro 4\"}]", "schedules": "[{\"routeId\": \"route:IDFM:RATP:107752-C01374-ITI_IDFM_C01374_A_-401577644\", \"from\": \"Porte de Clignancourt\", \"to\": \"Bagneux - Lucie Aubrac\", \"first\": \"05:30\", \"last\": \"00:40\"}, {\"routeId\": \"route:IDFM:RATP:122980-C01374-ITI_IDFM_C01374_R_2029615734\", \"from\": \"Bagneux - Lucie Aubrac\", \"to\": \"Porte de Clignancourt\", \"first\": \"05:30\", \"last\": \"00:40\"}]", "stop_id": "IDFM:463310", "stop_name": "Simplon", "stop_lon": "2.347794968187123", "stop_lat": "48.8938152613519", "operatorname": "RATP", "pointgeo": {"lon": 2.347794968187123, "lat": 48.8938152613519}, "nom_commune": "Paris", "code_insee": "75056"},{"id": "IDFM:C01374", "route_long_name": "4", "plans": "[{\"link\": \"https://www.ratp.fr/sites/default/files/lines-assets/plan-de-ligne/metro/plan-de-ligne_metro_ligne-4.pdf\", \"label\": \"Plan M\u00e9tro 4\"}]", "schedules": "[{\"routeId\": \"route:IDFM:RATP:107752-C01374-ITI_IDFM_C01374_A_-401577644\", \"from\": \"Porte de Clignancourt\", \"to\": \"Bagneux - Lucie Aubrac\", \"first\": \"05:30\", \"last\": \"00:40\"}, {\"routeId\": \"route:IDFM:RATP:122980-C01374-ITI_IDFM_C01374_R_2029615734\", \"from\": \"Bagneux - Lucie Aubrac\", \"to\": \"Porte de Clignancourt\", \"first\": \"05:30\", \"last\": \"00:40\"}]", "stop_id": "IDFM:22133", "stop_name": "Simplon", "stop_lon": "2.347794968187123", "stop_lat": "48.8938152613519", "operatorname": "RATP", "pointgeo": {"lon": 2.347794968187123, "lat": 48.8938152613519}, "nom_commune": "Paris", "code_insee": "75056"},{"id": "IDFM:C01374", "route_long_name": "4", "plans": "[{\"link\": \"https://www.ratp.fr/sites/default/files/lines-assets/plan-de-ligne/metro/plan-de-ligne_metro_ligne-4.pdf\", \"label\": \"Plan M\u00e9tro 4\"}]", "schedules": "[{\"routeId\": \"route:IDFM:RATP:107752-C01374-ITI_IDFM_C01374_A_-401577644\", \"from\": \"Porte de Clignancourt\", \"to\": \"Bagneux - Lucie Aubrac\", \"first\": \"05:30\", \"last\": \"00:40\"}, {\"routeId\": \"route:IDFM:RATP:122980-C01374-ITI_IDFM_C01374_R_2029615734\", \"from\": \"Bagneux - Lucie Aubrac\", \"to\": \"Porte de Clignancourt\", \"first\": \"05:30\", \"last\": \"00:40\"}]", "stop_id": "IDFM:462974", "stop_name": "Marcadet - Poissonniers", "stop_lon": "2.3495451670385634", "stop_lat": "48.89127969913649", "operatorname": "RATP", "pointgeo": {"lon": 2.3495451670385634, "lat": 48.89127969913649}, "nom_commune": "Paris", "code_insee": "75056"},{"id": "IDFM:C01374", "route_long_name": "4", "plans": "[{\"link\": \"https://www.ratp.fr/sites/default/files/lines-assets/plan-de-ligne/metro/plan-de-ligne_metro_ligne-4.pdf\", \"label\": \"Plan M\u00e9tro 4\"}]", "schedules": "[{\"routeId\": \"route:IDFM:RATP:107752-C01374-ITI_IDFM_C01374_A_-401577644\", \"from\": \"Porte de Clignancourt\", \"to\": \"Bagneux - Lucie Aubrac\", \"first\": \"05:30\", \"last\": \"00:40\"}, {\"routeId\": \"route:IDFM:RATP:122980-C01374-ITI_IDFM_C01374_R_2029615734\", \"from\": \"Bagneux - Lucie Aubrac\", \"to\": \"Porte de Clignancourt\", \"first\": \"05:30\", \"last\": \"00:40\"}]", "stop_id": "IDFM:22148", "stop_name": "Gare de l'Est", "stop_lon": "2.3577495818204395", "stop_lat": "48.87627821831841", "operatorname": "RATP", "pointgeo": {"lon": 2.3577495818204395, "lat": 48.87627821831841}, "nom_commune": "Paris", "code_insee": "75056"},{"id": "IDFM:C01374", "route_long_name": "4", "plans": "[{\"link\": \"https://www.ratp.fr/sites/default/files/lines-assets/plan-de-ligne/metro/plan-de-ligne_metro_ligne-4.pdf\", \"label\": \"Plan M\u00e9tro 4\"}]", "schedules": "[{\"routeId\": \"route:IDFM:RATP:107752-C01374-ITI_IDFM_C01374_A_-401577644\", \"from\": \"Porte de Clignancourt\", \"to\": \"Bagneux - Lucie Aubrac\", \"first\": \"05:30\", \"last\": \"00:40\"}, {\"routeId\": \"route:IDFM:RATP:122980-C01374-ITI_IDFM_C01374_R_2029615734\", \"from\": \"Bagneux - Lucie Aubrac\", \"to\": \"Porte de Clignancourt\", \"first\": \"05:30\", \"last\": \"00:40\"}]", "stop_id": "IDFM:463171", "stop_name": "Etienne Marcel", "stop_lon": "2.3489761968791085", "stop_lat": "48.86370301202431", "operatorname": "RATP", "pointgeo": {"lon": 2.3489761968791085, "lat": 48.86370301202431}, "nom_commune": "Paris", "code_insee": "75056"},{"id": "IDFM:C01374", "route_long_name": "4", "plans": "[{\"link\": \"https://www.ratp.fr/sites/default/files/lines-assets/plan-de-ligne/metro/plan-de-ligne_metro_ligne-4.pdf\", \"label\": \"Plan M\u00e9tro 4\"}]", "schedules": "[{\"routeId\": \"route:IDFM:RATP:107752-C01374-ITI_IDFM_C01374_A_-401577644\", \"from\": \"Porte de Clignancourt\", \"to\": \"Bagneux - Lucie Aubrac\", \"first\": \"05:30\", \"last\": \"00:40\"}, {\"routeId\": \"route:IDFM:RATP:122980-C01374-ITI_IDFM_C01374_R_2029615734\", \"from\": \"Bagneux - Lucie Aubrac\", \"to\": \"Porte de Clignancourt\", \"first\": \"05:30\", \"last\": \"00:40\"}]", "stop_id": "IDFM:463016", "stop_name": "Vavin", "stop_lon": "2.3288628540691043", "stop_lat": "48.84205232329236", "operatorname": "RATP", "pointgeo": {"lon": 2.3288628540691043, "lat": 48.84205232329236}, "nom_commune": "Paris", "code_insee": "75056"},{"id": "IDFM:C01374", "route_long_name": "4", "plans": "[{\"link\": \"https://www.ratp.fr/sites/default/files/lines-assets/plan-de-ligne/metro/plan-de-ligne_metro_ligne-4.pdf\", \"label\": \"Plan M\u00e9tro 4\"}]", "schedules": "[{\"routeId\": \"route:IDFM:RATP:107752-C01374-ITI_IDFM_C01374_A_-401577644\", \"from\": \"Porte de Clignancourt\", \"to\": \"Bagneux - Lucie Aubrac\", \"first\": \"05:30\", \"last\": \"00:40\"}, {\"routeId\": \"route:IDFM:RATP:122980-C01374-ITI_IDFM_C01374_R_2029615734\", \"from\": \"Bagneux - Lucie Aubrac\", \"to\": \"Porte de Clignancourt\", \"first\": \"05:30\", \"last\": \"00:40\"}]", "stop_id": "IDFM:22154", "stop_name": "Al\u00e9sia", "stop_lon": "2.3270932349484528", "stop_lat": "48.82820106421924", "operatorname": "RATP", "pointgeo": {"lon": 2.3270932349484528, "lat": 48.82820106421924}, "nom_commune": "Paris", "code_insee": "75056"},{"id": "IDFM:C01374", "route_long_name": "4", "plans": "[{\"link\": \"https://www.ratp.fr/sites/default/files/lines-assets/plan-de-ligne/metro/plan-de-ligne_metro_ligne-4.pdf\", \"label\": \"Plan M\u00e9tro 4\"}]", "schedules": "[{\"routeId\": \"route:IDFM:RATP:107752-C01374-ITI_IDFM_C01374_A_-401577644\", \"from\": \"Porte de Clignancourt\", \"to\": \"Bagneux - Lucie Aubrac\", \"first\": \"05:30\", \"last\": \"00:40\"}, {\"routeId\": \"route:IDFM:RATP:122980-C01374-ITI_IDFM_C01374_R_2029615734\", \"from\": \"Bagneux - Lucie Aubrac\", \"to\": \"Porte de Clignancourt\", \"first\": \"05:30\", \"last\": \"00:40\"}]", "stop_id": "IDFM:22140", "stop_name": "Porte d'Orl\u00e9ans", "stop_lon": "2.3254932653821045", "stop_lat": "48.823416351140224", "operatorname": "RATP", "pointgeo": {"lon": 2.3254932653821045, "lat": 48.823416351140224}, "nom_commune": "Paris", "code_insee": "75056"},{"id": "IDFM:C01374", "route_long_name": "4", "plans": "[{\"link\": \"https://www.ratp.fr/sites/default/files/lines-assets/plan-de-ligne/metro/plan-de-ligne_metro_ligne-4.pdf\", \"label\": \"Plan M\u00e9tro 4\"}]", "schedules": "[{\"routeId\": \"route:IDFM:RATP:107752-C01374-ITI_IDFM_C01374_A_-401577644\", \"from\": \"Porte de Clignancourt\", \"to\": \"Bagneux - Lucie Aubrac\", \"first\": \"05:30\", \"last\": \"00:40\"}, {\"routeId\": \"route:IDFM:RATP:122980-C01374-ITI_IDFM_C01374_R_2029615734\", \"from\": \"Bagneux - Lucie Aubrac\", \"to\": \"Porte de Clignancourt\", \"first\": \"05:30\", \"last\": \"00:40\"}]", "stop_id": "IDFM:463222", "stop_name": "Mairie de Montrouge", "stop_lon": "2.3196193991237846", "stop_lat": "48.818454456190004", "operatorname": "RATP", "pointgeo": {"lon": 2.3196193991237846, "lat": 48.818454456190004}, "nom_commune": "Montrouge", "code_insee": "92049"},{"id": "IDFM:C01374", "route_long_name": "4", "plans": "[{\"link\": \"https://www.ratp.fr/sites/default/files/lines-assets/plan-de-ligne/metro/plan-de-ligne_metro_ligne-4.pdf\", \"label\": \"Plan M\u00e9tro 4\"}]", "schedules": "[{\"routeId\": \"route:IDFM:RATP:107752-C01374-ITI_IDFM_C01374_A_-401577644\", \"from\": \"Porte de Clignancourt\", \"to\": \"Bagneux - Lucie Aubrac\", \"first\": \"05:30\", \"last\": \"00:40\"}, {\"routeId\": \"route:IDFM:RATP:122980-C01374-ITI_IDFM_C01374_R_2029615734\", \"from\": \"Bagneux - Lucie Aubrac\", \"to\": \"Porte de Clignancourt\", \"first\": \"05:30\", \"last\": \"00:40\"}]", "stop_id": "IDFM:22151", "stop_name": "Denfert-Rochereau", "stop_lon": "2.3321281604376116", "stop_lat": "48.83392232305997", "operatorname": "RATP", "pointgeo": {"lon": 2.3321281604376116, "lat": 48.83392232305997}, "nom_commune": "Paris", "code_insee": "75056"},{"id": "IDFM:C01374", "route_long_name": "4", "plans": "[{\"link\": \"https://www.ratp.fr/sites/default/files/lines-assets/plan-de-ligne/metro/plan-de-ligne_metro_ligne-4.pdf\", \"label\": \"Plan M\u00e9tro 4\"}]", "schedules": "[{\"routeId\": \"route:IDFM:RATP:107752-C01374-ITI_IDFM_C01374_A_-401577644\", \"from\": \"Porte de Clignancourt\", \"to\": \"Bagneux - Lucie Aubrac\", \"first\": \"05:30\", \"last\": \"00:40\"}, {\"routeId\": \"route:IDFM:RATP:122980-C01374-ITI_IDFM_C01374_R_2029615734\", \"from\": \"Bagneux - Lucie Aubrac\", \"to\": \"Porte de Clignancourt\", \"first\": \"05:30\", \"last\": \"00:40\"}]", "stop_id": "IDFM:463291", "stop_name": "Raspail", "stop_lon": "2.3307802165662403", "stop_lat": "48.83910415024143", "operatorname": "RATP", "pointgeo": {"lon": 2.3307802165662403, "lat": 48.83910415024143}, "nom_commune": "Paris", "code_insee": "75056"},{"id": "IDFM:C01374", "route_long_name": "4", "plans": "[{\"link\": \"https://www.ratp.fr/sites/default/files/lines-assets/plan-de-ligne/metro/plan-de-ligne_metro_ligne-4.pdf\", \"label\": \"Plan M\u00e9tro 4\"}]", "schedules": "[{\"routeId\": \"route:IDFM:RATP:107752-C01374-ITI_IDFM_C01374_A_-401577644\", \"from\": \"Porte de Clignancourt\", \"to\": \"Bagneux - Lucie Aubrac\", \"first\": \"05:30\", \"last\": \"00:40\"}, {\"routeId\": \"route:IDFM:RATP:122980-C01374-ITI_IDFM_C01374_R_2029615734\", \"from\": \"Bagneux - Lucie Aubrac\", \"to\": \"Porte de Clignancourt\", \"first\": \"05:30\", \"last\": \"00:40\"}]", "stop_id": "IDFM:462992", "stop_name": "Saint-Sulpice", "stop_lon": "2.330953550650454", "stop_lat": "48.85113858957915", "operatorname": "RATP", "pointgeo": {"lon": 2.330953550650454, "lat": 48.85113858957915}, "nom_commune": "Paris", "code_insee": "75056"},{"id": "IDFM:C01374", "route_long_name": "4", "plans": "[{\"link\": \"https://www.ratp.fr/sites/default/files/lines-assets/plan-de-ligne/metro/plan-de-ligne_metro_ligne-4.pdf\", \"label\": \"Plan M\u00e9tro 4\"}]", "schedules": "[{\"routeId\": \"route:IDFM:RATP:107752-C01374-ITI_IDFM_C01374_A_-401577644\", \"from\": \"Porte de Clignancourt\", \"to\": \"Bagneux - Lucie Aubrac\", \"first\": \"05:30\", \"last\": \"00:40\"}, {\"routeId\": \"route:IDFM:RATP:122980-C01374-ITI_IDFM_C01374_R_2029615734\", \"from\": \"Bagneux - Lucie Aubrac\", \"to\": \"Porte de Clignancourt\", \"first\": \"05:30\", \"last\": \"00:40\"}]", "stop_id": "IDFM:22141", "stop_name": "Porte de Clignancourt", "stop_lon": "2.3447472731828847", "stop_lat": "48.897557781418705", "operatorname": "RATP", "pointgeo": {"lon": 2.3447472731828847, "lat": 48.897557781418705}, "nom_commune": "Paris", "code_insee": "75056"},{"id": "IDFM:C01374", "route_long_name": "4", "plans": "[{\"link\": \"https://www.ratp.fr/sites/default/files/lines-assets/plan-de-ligne/metro/plan-de-ligne_metro_ligne-4.pdf\", \"label\": \"Plan M\u00e9tro 4\"}]", "schedules": "[{\"routeId\": \"route:IDFM:RATP:107752-C01374-ITI_IDFM_C01374_A_-401577644\", \"from\": \"Porte de Clignancourt\", \"to\": \"Bagneux - Lucie Aubrac\", \"first\": \"05:30\", \"last\": \"00:40\"}, {\"routeId\": \"route:IDFM:RATP:122980-C01374-ITI_IDFM_C01374_R_2029615734\", \"from\": \"Bagneux - Lucie Aubrac\", \"to\": \"Porte de Clignancourt\", \"first\": \"05:30\", \"last\": \"00:40\"}]", "stop_id": "IDFM:463073", "stop_name": "Porte de Clignancourt", "stop_lon": "2.344624099102791", "stop_lat": "48.897525631278015", "operatorname": "RATP", "pointgeo": {"lon": 2.344624099102791, "lat": 48.897525631278015}, "nom_commune": "Paris", "code_insee": "75056"},{"id": "IDFM:C01374", "route_long_name": "4", "plans": "[{\"link\": \"https://www.ratp.fr/sites/default/files/lines-assets/plan-de-ligne/metro/plan-de-ligne_metro_ligne-4.pdf\", \"label\": \"Plan M\u00e9tro 4\"}]", "schedules": "[{\"routeId\": \"route:IDFM:RATP:107752-C01374-ITI_IDFM_C01374_A_-401577644\", \"from\": \"Porte de Clignancourt\", \"to\": \"Bagneux - Lucie Aubrac\", \"first\": \"05:30\", \"last\": \"00:40\"}, {\"routeId\": \"route:IDFM:RATP:122980-C01374-ITI_IDFM_C01374_R_2029615734\", \"from\": \"Bagneux - Lucie Aubrac\", \"to\": \"Porte de Clignancourt\", \"first\": \"05:30\", \"last\": \"00:40\"}]", "stop_id": "IDFM:463148", "stop_name": "Ch\u00e2teau Rouge", "stop_lon": "2.3493658080048405", "stop_lat": "48.88707887746752", "operatorname": "RATP", "pointgeo": {"lon": 2.3493658080048405, "lat": 48.88707887746752}, "nom_commune": "Paris", "code_insee": "75056"},{"id": "IDFM:C01374", "route_long_name": "4", "plans": "[{\"link\": \"https://www.ratp.fr/sites/default/files/lines-assets/plan-de-ligne/metro/plan-de-ligne_metro_ligne-4.pdf\", \"label\": \"Plan M\u00e9tro 4\"}]", "schedules": "[{\"routeId\": \"route:IDFM:RATP:107752-C01374-ITI_IDFM_C01374_A_-401577644\", \"from\": \"Porte de Clignancourt\", \"to\": \"Bagneux - Lucie Aubrac\", \"first\": \"05:30\", \"last\": \"00:40\"}, {\"routeId\": \"route:IDFM:RATP:122980-C01374-ITI_IDFM_C01374_R_2029615734\", \"from\": \"Bagneux - Lucie Aubrac\", \"to\": \"Porte de Clignancourt\", \"first\": \"05:30\", \"last\": \"00:40\"}]", "stop_id": "IDFM:22092", "stop_name": "Ch\u00e2telet", "stop_lon": "2.3466414308440138", "stop_lat": "48.859661211559086", "operatorname": "RATP", "pointgeo": {"lon": 2.3466414308440138, "lat": 48.859661211559086}, "nom_commune": "Paris", "code_insee": "75056"},{"id": "IDFM:C01374", "route_long_name": "4", "plans": "[{\"link\": \"https://www.ratp.fr/sites/default/files/lines-assets/plan-de-ligne/metro/plan-de-ligne_metro_ligne-4.pdf\", \"label\": \"Plan M\u00e9tro 4\"}]", "schedules": "[{\"routeId\": \"route:IDFM:RATP:107752-C01374-ITI_IDFM_C01374_A_-401577644\", \"from\": \"Porte de Clignancourt\", \"to\": \"Bagneux - Lucie Aubrac\", \"first\": \"05:30\", \"last\": \"00:40\"}, {\"routeId\": \"route:IDFM:RATP:122980-C01374-ITI_IDFM_C01374_R_2029615734\", \"from\": \"Bagneux - Lucie Aubrac\", \"to\": \"Porte de Clignancourt\", \"first\": \"05:30\", \"last\": \"00:40\"}]", "stop_id": "IDFM:22137", "stop_name": "Saint-Michel", "stop_lon": "2.343964657062377", "stop_lat": "48.85358493521485", "operatorname": "RATP", "pointgeo": {"lon": 2.343964657062377, "lat": 48.85358493521485}, "nom_commune": "Paris", "code_insee": "75056"},{"id": "IDFM:C01374", "route_long_name": "4", "plans": "[{\"link\": \"https://www.ratp.fr/sites/default/files/lines-assets/plan-de-ligne/metro/plan-de-ligne_metro_ligne-4.pdf\", \"label\": \"Plan M\u00e9tro 4\"}]", "schedules": "[{\"routeId\": \"route:IDFM:RATP:107752-C01374-ITI_IDFM_C01374_A_-401577644\", \"from\": \"Porte de Clignancourt\", \"to\": \"Bagneux - Lucie Aubrac\", \"first\": \"05:30\", \"last\": \"00:40\"}, {\"routeId\": \"route:IDFM:RATP:122980-C01374-ITI_IDFM_C01374_R_2029615734\", \"from\": \"Bagneux - Lucie Aubrac\", \"to\": \"Porte de Clignancourt\", \"first\": \"05:30\", \"last\": \"00:40\"}]", "stop_id": "IDFM:22138", "stop_name": "Saint-Placide", "stop_lon": "2.3268499626718526", "stop_lat": "48.847041473609366", "operatorname": "RATP", "pointgeo": {"lon": 2.3268499626718526, "lat": 48.847041473609366}, "nom_commune": "Paris", "code_insee": "75056"},{"id": "IDFM:C01374", "route_long_name": "4", "plans": "[{\"link\": \"https://www.ratp.fr/sites/default/files/lines-assets/plan-de-ligne/metro/plan-de-ligne_metro_ligne-4.pdf\", \"label\": \"Plan M\u00e9tro 4\"}]", "schedules": "[{\"routeId\": \"route:IDFM:RATP:107752-C01374-ITI_IDFM_C01374_A_-401577644\", \"from\": \"Porte de Clignancourt\", \"to\": \"Bagneux - Lucie Aubrac\", \"first\": \"05:30\", \"last\": \"00:40\"}, {\"routeId\": \"route:IDFM:RATP:122980-C01374-ITI_IDFM_C01374_R_2029615734\", \"from\": \"Bagneux - Lucie Aubrac\", \"to\": \"Porte de Clignancourt\", \"first\": \"05:30\", \"last\": \"00:40\"}]", "stop_id": "IDFM:463118", "stop_name": "Al\u00e9sia", "stop_lon": "2.3271926250651647", "stop_lat": "48.828152157703514", "operatorname": "RATP", "pointgeo": {"lon": 2.3271926250651647, "lat": 48.828152157703514}, "nom_commune": "Paris", "code_insee": "75056"},{"id": "IDFM:C01374", "route_long_name": "4", "plans": "[{\"link\": \"https://www.ratp.fr/sites/default/files/lines-assets/plan-de-ligne/metro/plan-de-ligne_metro_ligne-4.pdf\", \"label\": \"Plan M\u00e9tro 4\"}]", "schedules": "[{\"routeId\": \"route:IDFM:RATP:107752-C01374-ITI_IDFM_C01374_A_-401577644\", \"from\": \"Porte de Clignancourt\", \"to\": \"Bagneux - Lucie Aubrac\", \"first\": \"05:30\", \"last\": \"00:40\"}, {\"routeId\": \"route:IDFM:RATP:122980-C01374-ITI_IDFM_C01374_R_2029615734\", \"from\": \"Bagneux - Lucie Aubrac\", \"to\": \"Porte de Clignancourt\", \"first\": \"05:30\", \"last\": \"00:40\"}]", "stop_id": "IDFM:463242", "stop_name": "Mouton-Duvernet", "stop_lon": "2.329887640408421", "stop_lat": "48.83133758557153", "operatorname": "RATP", "pointgeo": {"lon": 2.329887640408421, "lat": 48.83133758557153}, "nom_commune": "Paris", "code_insee": "75056"},{"id": "IDFM:C01374", "route_long_name": "4", "plans": "[{\"link\": \"https://www.ratp.fr/sites/default/files/lines-assets/plan-de-ligne/metro/plan-de-ligne_metro_ligne-4.pdf\", \"label\": \"Plan M\u00e9tro 4\"}]", "schedules": "[{\"routeId\": \"route:IDFM:RATP:107752-C01374-ITI_IDFM_C01374_A_-401577644\", \"from\": \"Porte de Clignancourt\", \"to\": \"Bagneux - Lucie Aubrac\", \"first\": \"05:30\", \"last\": \"00:40\"}, {\"routeId\": \"route:IDFM:RATP:122980-C01374-ITI_IDFM_C01374_R_2029615734\", \"from\": \"Bagneux - Lucie Aubrac\", \"to\": \"Porte de Clignancourt\", \"first\": \"05:30\", \"last\": \"00:40\"}]", "stop_id": "IDFM:22136", "stop_name": "Saint-Germain-des-Pr\u00e9s", "stop_lon": "2.333947810798194", "stop_lat": "48.85357456382241", "operatorname": "RATP", "pointgeo": {"lon": 2.333947810798194, "lat": 48.85357456382241}, "nom_commune": "Paris", "code_insee": "75056"},{"id": "IDFM:C01374", "route_long_name": "4", "plans": "[{\"link\": \"https://www.ratp.fr/sites/default/files/lines-assets/plan-de-ligne/metro/plan-de-ligne_metro_ligne-4.pdf\", \"label\": \"Plan M\u00e9tro 4\"}]", "schedules": "[{\"routeId\": \"route:IDFM:RATP:107752-C01374-ITI_IDFM_C01374_A_-401577644\", \"from\": \"Porte de Clignancourt\", \"to\": \"Bagneux - Lucie Aubrac\", \"first\": \"05:30\", \"last\": \"00:40\"}, {\"routeId\": \"route:IDFM:RATP:122980-C01374-ITI_IDFM_C01374_R_2029615734\", \"from\": \"Bagneux - Lucie Aubrac\", \"to\": \"Porte de Clignancourt\", \"first\": \"05:30\", \"last\": \"00:40\"}]", "stop_id": "IDFM:22147", "stop_name": "Etienne Marcel", "stop_lon": "2.3489761968791085", "stop_lat": "48.86370301202431", "operatorname": "RATP", "pointgeo": {"lon": 2.3489761968791085, "lat": 48.86370301202431}, "nom_commune": "Paris", "code_insee": "75056"},{"id": "IDFM:C01374", "route_long_name": "4", "plans": "[{\"link\": \"https://www.ratp.fr/sites/default/files/lines-assets/plan-de-ligne/metro/plan-de-ligne_metro_ligne-4.pdf\", \"label\": \"Plan M\u00e9tro 4\"}]", "schedules": "[{\"routeId\": \"route:IDFM:RATP:107752-C01374-ITI_IDFM_C01374_A_-401577644\", \"from\": \"Porte de Clignancourt\", \"to\": \"Bagneux - Lucie Aubrac\", \"first\": \"05:30\", \"last\": \"00:40\"}, {\"routeId\": \"route:IDFM:RATP:122980-C01374-ITI_IDFM_C01374_R_2029615734\", \"from\": \"Bagneux - Lucie Aubrac\", \"to\": \"Porte de Clignancourt\", \"first\": \"05:30\", \"last\": \"00:40\"}]", "stop_id": "IDFM:22134", "stop_name": "Strasbourg - Saint-Denis", "stop_lon": "2.354491616563834", "stop_lat": "48.86962358263758", "operatorname": "RATP", "pointgeo": {"lon": 2.354491616563834, "lat": 48.86962358263758}, "nom_commune": "Paris", "code_insee": "75056"},{"id": "IDFM:C01374", "route_long_name": "4", "plans": "[{\"link\": \"https://www.ratp.fr/sites/default/files/lines-assets/plan-de-ligne/metro/plan-de-ligne_metro_ligne-4.pdf\", \"label\": \"Plan M\u00e9tro 4\"}]", "schedules": "[{\"routeId\": \"route:IDFM:RATP:107752-C01374-ITI_IDFM_C01374_A_-401577644\", \"from\": \"Porte de Clignancourt\", \"to\": \"Bagneux - Lucie Aubrac\", \"first\": \"05:30\", \"last\": \"00:40\"}, {\"routeId\": \"route:IDFM:RATP:122980-C01374-ITI_IDFM_C01374_R_2029615734\", \"from\": \"Bagneux - Lucie Aubrac\", \"to\": \"Porte de Clignancourt\", \"first\": \"05:30\", \"last\": \"00:40\"}]", "stop_id": "IDFM:463183", "stop_name": "Gare du Nord", "stop_lon": "2.356808788205409", "stop_lat": "48.87959170741013", "operatorname": "RATP", "pointgeo": {"lon": 2.356808788205409, "lat": 48.87959170741013}, "nom_commune": "Paris", "code_insee": "75056"},{"id": "IDFM:C01374", "route_long_name": "4", "plans": "[{\"link\": \"https://www.ratp.fr/sites/default/files/lines-assets/plan-de-ligne/metro/plan-de-ligne_metro_ligne-4.pdf\", \"label\": \"Plan M\u00e9tro 4\"}]", "schedules": "[{\"routeId\": \"route:IDFM:RATP:107752-C01374-ITI_IDFM_C01374_A_-401577644\", \"from\": \"Porte de Clignancourt\", \"to\": \"Bagneux - Lucie Aubrac\", \"first\": \"05:30\", \"last\": \"00:40\"}, {\"routeId\": \"route:IDFM:RATP:122980-C01374-ITI_IDFM_C01374_R_2029615734\", \"from\": \"Bagneux - Lucie Aubrac\", \"to\": \"Porte de Clignancourt\", \"first\": \"05:30\", \"last\": \"00:40\"}]", "stop_id": "IDFM:22130", "stop_name": "Barb\u00e8s - Rochechouart", "stop_lon": "2.349629927853002", "stop_lat": "48.883402060486226", "operatorname": "RATP", "pointgeo": {"lon": 2.349629927853002, "lat": 48.883402060486226}, "nom_commune": "Paris", "code_insee": "75056"},{"id": "IDFM:C01374", "route_long_name": "4", "plans": "[{\"link\": \"https://www.ratp.fr/sites/default/files/lines-assets/plan-de-ligne/metro/plan-de-ligne_metro_ligne-4.pdf\", \"label\": \"Plan M\u00e9tro 4\"}]", "schedules": "[{\"routeId\": \"route:IDFM:RATP:107752-C01374-ITI_IDFM_C01374_A_-401577644\", \"from\": \"Porte de Clignancourt\", \"to\": \"Bagneux - Lucie Aubrac\", \"first\": \"05:30\", \"last\": \"00:40\"}, {\"routeId\": \"route:IDFM:RATP:122980-C01374-ITI_IDFM_C01374_R_2029615734\", \"from\": \"Bagneux - Lucie Aubrac\", \"to\": \"Porte de Clignancourt\", \"first\": \"05:30\", \"last\": \"00:40\"}]", "stop_id": "IDFM:22149", "stop_name": "Gare du Nord", "stop_lon": "2.356768884572096", "stop_lat": "48.879510553130615", "operatorname": "RATP", "pointgeo": {"lon": 2.356768884572096, "lat": 48.879510553130615}, "nom_commune": "Paris", "code_insee": "75056"},{"id": "IDFM:C01374", "route_long_name": "4", "plans": "[{\"link\": \"https://www.ratp.fr/sites/default/files/lines-assets/plan-de-ligne/metro/plan-de-ligne_metro_ligne-4.pdf\", \"label\": \"Plan M\u00e9tro 4\"}]", "schedules": "[{\"routeId\": \"route:IDFM:RATP:107752-C01374-ITI_IDFM_C01374_A_-401577644\", \"from\": \"Porte de Clignancourt\", \"to\": \"Bagneux - Lucie Aubrac\", \"first\": \"05:30\", \"last\": \"00:40\"}, {\"routeId\": \"route:IDFM:RATP:122980-C01374-ITI_IDFM_C01374_R_2029615734\", \"from\": \"Bagneux - Lucie Aubrac\", \"to\": \"Porte de Clignancourt\", \"first\": \"05:30\", \"last\": \"00:40\"}]", "stop_id": "IDFM:22146", "stop_name": "Les Halles", "stop_lon": "2.34600573656331", "stop_lat": "48.86252665962869", "operatorname": "RATP", "pointgeo": {"lon": 2.34600573656331, "lat": 48.86252665962869}, "nom_commune": "Paris", "code_insee": "75056"},{"id": "IDFM:C01374", "route_long_name": "4", "plans": "[{\"link\": \"https://www.ratp.fr/sites/default/files/lines-assets/plan-de-ligne/metro/plan-de-ligne_metro_ligne-4.pdf\", \"label\": \"Plan M\u00e9tro 4\"}]", "schedules": "[{\"routeId\": \"route:IDFM:RATP:107752-C01374-ITI_IDFM_C01374_A_-401577644\", \"from\": \"Porte de Clignancourt\", \"to\": \"Bagneux - Lucie Aubrac\", \"first\": \"05:30\", \"last\": \"00:40\"}, {\"routeId\": \"route:IDFM:RATP:122980-C01374-ITI_IDFM_C01374_R_2029615734\", \"from\": \"Bagneux - Lucie Aubrac\", \"to\": \"Porte de Clignancourt\", \"first\": \"05:30\", \"last\": \"00:40\"}]", "stop_id": "IDFM:462993", "stop_name": "Saint-Germain-des-Pr\u00e9s", "stop_lon": "2.3339874291342255", "stop_lat": "48.85367371343323", "operatorname": "RATP", "pointgeo": {"lon": 2.3339874291342255, "lat": 48.85367371343323}, "nom_commune": "Paris", "code_insee": "75056"},{"id": "IDFM:C01374", "route_long_name": "4", "plans": "[{\"link\": \"https://www.ratp.fr/sites/default/files/lines-assets/plan-de-ligne/metro/plan-de-ligne_metro_ligne-4.pdf\", \"label\": \"Plan M\u00e9tro 4\"}]", "schedules": "[{\"routeId\": \"route:IDFM:RATP:107752-C01374-ITI_IDFM_C01374_A_-401577644\", \"from\": \"Porte de Clignancourt\", \"to\": \"Bagneux - Lucie Aubrac\", \"first\": \"05:30\", \"last\": \"00:40\"}, {\"routeId\": \"route:IDFM:RATP:122980-C01374-ITI_IDFM_C01374_R_2029615734\", \"from\": \"Bagneux - Lucie Aubrac\", \"to\": \"Porte de Clignancourt\", \"first\": \"05:30\", \"last\": \"00:40\"}]", "stop_id": "IDFM:463092", "stop_name": "Porte d'Orl\u00e9ans", "stop_lon": "2.325623760353114", "stop_lat": "48.823394602620716", "operatorname": "RATP", "pointgeo": {"lon": 2.325623760353114, "lat": 48.823394602620716}, "nom_commune": "Paris", "code_insee": "75056"},{"id": "IDFM:C01374", "route_long_name": "4", "plans": "[{\"link\": \"https://www.ratp.fr/sites/default/files/lines-assets/plan-de-ligne/metro/plan-de-ligne_metro_ligne-4.pdf\", \"label\": \"Plan M\u00e9tro 4\"}]", "schedules": "[{\"routeId\": \"route:IDFM:RATP:107752-C01374-ITI_IDFM_C01374_A_-401577644\", \"from\": \"Porte de Clignancourt\", \"to\": \"Bagneux - Lucie Aubrac\", \"first\": \"05:30\", \"last\": \"00:40\"}, {\"routeId\": \"route:IDFM:RATP:122980-C01374-ITI_IDFM_C01374_R_2029615734\", \"from\": \"Bagneux - Lucie Aubrac\", \"to\": \"Porte de Clignancourt\", \"first\": \"05:30\", \"last\": \"00:40\"}]", "stop_id": "IDFM:463306", "stop_name": "Saint-Michel", "stop_lon": "2.343991799033288", "stop_lat": "48.85359407756809", "operatorname": "RATP", "pointgeo": {"lon": 2.343991799033288, "lat": 48.85359407756809}, "nom_commune": "Paris", "code_insee": "75056"},{"id": "IDFM:C01374", "route_long_name": "4", "plans": "[{\"link\": \"https://www.ratp.fr/sites/default/files/lines-assets/plan-de-ligne/metro/plan-de-ligne_metro_ligne-4.pdf\", \"label\": \"Plan M\u00e9tro 4\"}]", "schedules": "[{\"routeId\": \"route:IDFM:RATP:107752-C01374-ITI_IDFM_C01374_A_-401577644\", \"from\": \"Porte de Clignancourt\", \"to\": \"Bagneux - Lucie Aubrac\", \"first\": \"05:30\", \"last\": \"00:40\"}, {\"routeId\": \"route:IDFM:RATP:122980-C01374-ITI_IDFM_C01374_R_2029615734\", \"from\": \"Bagneux - Lucie Aubrac\", \"to\": \"Porte de Clignancourt\", \"first\": \"05:30\", \"last\": \"00:40\"}]", "stop_id": "IDFM:22132", "stop_name": "Marcadet - Poissonniers", "stop_lon": "2.3496815417224775", "stop_lat": "48.891280439844486", "operatorname": "RATP", "pointgeo": {"lon": 2.3496815417224775, "lat": 48.891280439844486}, "nom_commune": "Paris", "code_insee": "75056"},{"id": "IDFM:C01374", "route_long_name": "4", "plans": "[{\"link\": \"https://www.ratp.fr/sites/default/files/lines-assets/plan-de-ligne/metro/plan-de-ligne_metro_ligne-4.pdf\", \"label\": \"Plan M\u00e9tro 4\"}]", "schedules": "[{\"routeId\": \"route:IDFM:RATP:107752-C01374-ITI_IDFM_C01374_A_-401577644\", \"from\": \"Porte de Clignancourt\", \"to\": \"Bagneux - Lucie Aubrac\", \"first\": \"05:30\", \"last\": \"00:40\"}, {\"routeId\": \"route:IDFM:RATP:122980-C01374-ITI_IDFM_C01374_R_2029615734\", \"from\": \"Bagneux - Lucie Aubrac\", \"to\": \"Porte de Clignancourt\", \"first\": \"05:30\", \"last\": \"00:40\"}]", "stop_id": "IDFM:463072", "stop_name": "R\u00e9aumur - S\u00e9bastopol", "stop_lon": "2.352381731140252", "stop_lat": "48.866077771215046", "operatorname": "RATP", "pointgeo": {"lon": 2.352381731140252, "lat": 48.866077771215046}, "nom_commune": "Paris", "code_insee": "75056"},{"id": "IDFM:C01374", "route_long_name": "4", "plans": "[{\"link\": \"https://www.ratp.fr/sites/default/files/lines-assets/plan-de-ligne/metro/plan-de-ligne_metro_ligne-4.pdf\", \"label\": \"Plan M\u00e9tro 4\"}]", "schedules": "[{\"routeId\": \"route:IDFM:RATP:107752-C01374-ITI_IDFM_C01374_A_-401577644\", \"from\": \"Porte de Clignancourt\", \"to\": \"Bagneux - Lucie Aubrac\", \"first\": \"05:30\", \"last\": \"00:40\"}, {\"routeId\": \"route:IDFM:RATP:122980-C01374-ITI_IDFM_C01374_R_2029615734\", \"from\": \"Bagneux - Lucie Aubrac\", \"to\": \"Porte de Clignancourt\", \"first\": \"05:30\", \"last\": \"00:40\"}]", "stop_id": "IDFM:22150", "stop_name": "Cit\u00e9", "stop_lon": "2.3472322349319112", "stop_lat": "48.85493384910671", "operatorname": "RATP", "pointgeo": {"lon": 2.3472322349319112, "lat": 48.85493384910671}, "nom_commune": "Paris", "code_insee": "75056"},{"id": "IDFM:C01374", "route_long_name": "4", "plans": "[{\"link\": \"https://www.ratp.fr/sites/default/files/lines-assets/plan-de-ligne/metro/plan-de-ligne_metro_ligne-4.pdf\", \"label\": \"Plan M\u00e9tro 4\"}]", "schedules": "[{\"routeId\": \"route:IDFM:RATP:107752-C01374-ITI_IDFM_C01374_A_-401577644\", \"from\": \"Porte de Clignancourt\", \"to\": \"Bagneux - Lucie Aubrac\", \"first\": \"05:30\", \"last\": \"00:40\"}, {\"routeId\": \"route:IDFM:RATP:122980-C01374-ITI_IDFM_C01374_R_2029615734\", \"from\": \"Bagneux - Lucie Aubrac\", \"to\": \"Porte de Clignancourt\", \"first\": \"05:30\", \"last\": \"00:40\"}]", "stop_id": "IDFM:22144", "stop_name": "Mouton-Duvernet", "stop_lon": "2.32979034782274", "stop_lat": "48.831382009093616", "operatorname": "RATP", "pointgeo": {"lon": 2.32979034782274, "lat": 48.831382009093616}, "nom_commune": "Paris", "code_insee": "75056"},{"id": "IDFM:C01374", "route_long_name": "4", "plans": "[{\"link\": \"https://www.ratp.fr/sites/default/files/lines-assets/plan-de-ligne/metro/plan-de-ligne_metro_ligne-4.pdf\", \"label\": \"Plan M\u00e9tro 4\"}]", "schedules": "[{\"routeId\": \"route:IDFM:RATP:107752-C01374-ITI_IDFM_C01374_A_-401577644\", \"from\": \"Porte de Clignancourt\", \"to\": \"Bagneux - Lucie Aubrac\", \"first\": \"05:30\", \"last\": \"00:40\"}, {\"routeId\": \"route:IDFM:RATP:122980-C01374-ITI_IDFM_C01374_R_2029615734\", \"from\": \"Bagneux - Lucie Aubrac\", \"to\": \"Porte de Clignancourt\", \"first\": \"05:30\", \"last\": \"00:40\"}]", "stop_id": "IDFM:483313", "stop_name": "Barbara", "stop_lon": "2.3174174096489284", "stop_lat": "48.8097987811254", "operatorname": "RATP", "pointgeo": {"lon": 2.3174174096489284, "lat": 48.8097987811254}, "nom_commune": "Bagneux", "code_insee": "92007"},{"id": "IDFM:C01374", "route_long_name": "4", "plans": "[{\"link\": \"https://www.ratp.fr/sites/default/files/lines-assets/plan-de-ligne/metro/plan-de-ligne_metro_ligne-4.pdf\", \"label\": \"Plan M\u00e9tro 4\"}]", "schedules": "[{\"routeId\": \"route:IDFM:RATP:107752-C01374-ITI_IDFM_C01374_A_-401577644\", \"from\": \"Porte de Clignancourt\", \"to\": \"Bagneux - Lucie Aubrac\", \"first\": \"05:30\", \"last\": \"00:40\"}, {\"routeId\": \"route:IDFM:RATP:122980-C01374-ITI_IDFM_C01374_R_2029615734\", \"from\": \"Bagneux - Lucie Aubrac\", \"to\": \"Porte de Clignancourt\", \"first\": \"05:30\", \"last\": \"00:40\"}]", "stop_id": "IDFM:483314", "stop_name": "Bagneux - Lucie Aubrac", "stop_lon": "2.317458362049886", "stop_lat": "48.80354822259104", "operatorname": "RATP", "pointgeo": {"lon": 2.317458362049886, "lat": 48.80354822259104}, "nom_commune": "Bagneux", "code_insee": "92007"},{"id": "IDFM:C01374", "route_long_name": "4", "plans": "[{\"link\": \"https://www.ratp.fr/sites/default/files/lines-assets/plan-de-ligne/metro/plan-de-ligne_metro_ligne-4.pdf\", \"label\": \"Plan M\u00e9tro 4\"}]", "schedules": "[{\"routeId\": \"route:IDFM:RATP:107752-C01374-ITI_IDFM_C01374_A_-401577644\", \"from\": \"Porte de Clignancourt\", \"to\": \"Bagneux - Lucie Aubrac\", \"first\": \"05:30\", \"last\": \"00:40\"}, {\"routeId\": \"route:IDFM:RATP:122980-C01374-ITI_IDFM_C01374_R_2029615734\", \"from\": \"Bagneux - Lucie Aubrac\", \"to\": \"Porte de Clignancourt\", \"first\": \"05:30\", \"last\": \"00:40\"}]", "stop_id": "IDFM:483277", "stop_name": "Barbara", "stop_lon": "2.3174992240284045", "stop_lat": "48.80979025430712", "operatorname": "RATP", "pointgeo": {"lon": 2.3174992240284045, "lat": 48.80979025430712}, "nom_commune": "Bagneux", "code_insee": "92007"},{"id": "IDFM:C01374", "route_long_name": "4", "plans": "[{\"link\": \"https://www.ratp.fr/sites/default/files/lines-assets/plan-de-ligne/metro/plan-de-ligne_metro_ligne-4.pdf\", \"label\": \"Plan M\u00e9tro 4\"}]", "schedules": "[{\"routeId\": \"route:IDFM:RATP:107752-C01374-ITI_IDFM_C01374_A_-401577644\", \"from\": \"Porte de Clignancourt\", \"to\": \"Bagneux - Lucie Aubrac\", \"first\": \"05:30\", \"last\": \"00:40\"}, {\"routeId\": \"route:IDFM:RATP:122980-C01374-ITI_IDFM_C01374_R_2029615734\", \"from\": \"Bagneux - Lucie Aubrac\", \"to\": \"Porte de Clignancourt\", \"first\": \"05:30\", \"last\": \"00:40\"}]", "stop_id": "IDFM:22135", "stop_name": "Vavin", "stop_lon": "2.32902391746117", "stop_lat": "48.842242093452064", "operatorname": "RATP", "pointgeo": {"lon": 2.32902391746117, "lat": 48.842242093452064}, "nom_commune": "Paris", "code_insee": "75056"},{"id": "IDFM:C01374", "route_long_name": "4", "plans": "[{\"link\": \"https://www.ratp.fr/sites/default/files/lines-assets/plan-de-ligne/metro/plan-de-ligne_metro_ligne-4.pdf\", \"label\": \"Plan M\u00e9tro 4\"}]", "schedules": "[{\"routeId\": \"route:IDFM:RATP:107752-C01374-ITI_IDFM_C01374_A_-401577644\", \"from\": \"Porte de Clignancourt\", \"to\": \"Bagneux - Lucie Aubrac\", \"first\": \"05:30\", \"last\": \"00:40\"}, {\"routeId\": \"route:IDFM:RATP:122980-C01374-ITI_IDFM_C01374_R_2029615734\", \"from\": \"Bagneux - Lucie Aubrac\", \"to\": \"Porte de Clignancourt\", \"first\": \"05:30\", \"last\": \"00:40\"}]", "stop_id": "IDFM:463308", "stop_name": "Saint-Placide", "stop_lon": "2.327054815066312", "stop_lat": "48.84700665158937", "operatorname": "RATP", "pointgeo": {"lon": 2.327054815066312, "lat": 48.84700665158937}, "nom_commune": "Paris", "code_insee": "75056"},{"id": "IDFM:C01374", "route_long_name": "4", "plans": "[{\"link\": \"https://www.ratp.fr/sites/default/files/lines-assets/plan-de-ligne/metro/plan-de-ligne_metro_ligne-4.pdf\", \"label\": \"Plan M\u00e9tro 4\"}]", "schedules": "[{\"routeId\": \"route:IDFM:RATP:107752-C01374-ITI_IDFM_C01374_A_-401577644\", \"from\": \"Porte de Clignancourt\", \"to\": \"Bagneux - Lucie Aubrac\", \"first\": \"05:30\", \"last\": \"00:40\"}, {\"routeId\": \"route:IDFM:RATP:122980-C01374-ITI_IDFM_C01374_R_2029615734\", \"from\": \"Bagneux - Lucie Aubrac\", \"to\": \"Porte de Clignancourt\", \"first\": \"05:30\", \"last\": \"00:40\"}]", "stop_id": "IDFM:463161", "stop_name": "Cit\u00e9", "stop_lon": "2.347361051762225", "stop_lat": "48.85492106147581", "operatorname": "RATP", "pointgeo": {"lon": 2.347361051762225, "lat": 48.85492106147581}, "nom_commune": "Paris", "code_insee": "75056"},{"id": "IDFM:C01374", "route_long_name": "4", "plans": "[{\"link\": \"https://www.ratp.fr/sites/default/files/lines-assets/plan-de-ligne/metro/plan-de-ligne_metro_ligne-4.pdf\", \"label\": \"Plan M\u00e9tro 4\"}]", "schedules": "[{\"routeId\": \"route:IDFM:RATP:107752-C01374-ITI_IDFM_C01374_A_-401577644\", \"from\": \"Porte de Clignancourt\", \"to\": \"Bagneux - Lucie Aubrac\", \"first\": \"05:30\", \"last\": \"00:40\"}, {\"routeId\": \"route:IDFM:RATP:122980-C01374-ITI_IDFM_C01374_R_2029615734\", \"from\": \"Bagneux - Lucie Aubrac\", \"to\": \"Porte de Clignancourt\", \"first\": \"05:30\", \"last\": \"00:40\"}]", "stop_id": "IDFM:463208", "stop_name": "Les Halles", "stop_lon": "2.3461273251736805", "stop_lat": "48.8625048403394", "operatorname": "RATP", "pointgeo": {"lon": 2.3461273251736805, "lat": 48.8625048403394}, "nom_commune": "Paris", "code_insee": "75056"},{"id": "IDFM:C01374", "route_long_name": "4", "plans": "[{\"link\": \"https://www.ratp.fr/sites/default/files/lines-assets/plan-de-ligne/metro/plan-de-ligne_metro_ligne-4.pdf\", \"label\": \"Plan M\u00e9tro 4\"}]", "schedules": "[{\"routeId\": \"route:IDFM:RATP:107752-C01374-ITI_IDFM_C01374_A_-401577644\", \"from\": \"Porte de Clignancourt\", \"to\": \"Bagneux - Lucie Aubrac\", \"first\": \"05:30\", \"last\": \"00:40\"}, {\"routeId\": \"route:IDFM:RATP:122980-C01374-ITI_IDFM_C01374_R_2029615734\", \"from\": \"Bagneux - Lucie Aubrac\", \"to\": \"Porte de Clignancourt\", \"first\": \"05:30\", \"last\": \"00:40\"}]", "stop_id": "IDFM:22142", "stop_name": "R\u00e9aumur - S\u00e9bastopol", "stop_lon": "2.352613903045621", "stop_lat": "48.86604305354321", "operatorname": "RATP", "pointgeo": {"lon": 2.352613903045621, "lat": 48.86604305354321}, "nom_commune": "Paris", "code_insee": "75056"},{"id": "IDFM:C01374", "route_long_name": "4", "plans": "[{\"link\": \"https://www.ratp.fr/sites/default/files/lines-assets/plan-de-ligne/metro/plan-de-ligne_metro_ligne-4.pdf\", \"label\": \"Plan M\u00e9tro 4\"}]", "schedules": "[{\"routeId\": \"route:IDFM:RATP:107752-C01374-ITI_IDFM_C01374_A_-401577644\", \"from\": \"Porte de Clignancourt\", \"to\": \"Bagneux - Lucie Aubrac\", \"first\": \"05:30\", \"last\": \"00:40\"}, {\"routeId\": \"route:IDFM:RATP:122980-C01374-ITI_IDFM_C01374_R_2029615734\", \"from\": \"Bagneux - Lucie Aubrac\", \"to\": \"Porte de Clignancourt\", \"first\": \"05:30\", \"last\": \"00:40\"}]", "stop_id": "IDFM:22153", "stop_name": "Ch\u00e2teau d'Eau", "stop_lon": "2.3560517414015862", "stop_lat": "48.87244691759551", "operatorname": "RATP", "pointgeo": {"lon": 2.3560517414015862, "lat": 48.87244691759551}, "nom_commune": "Paris", "code_insee": "75056"},{"id": "IDFM:C01374", "route_long_name": "4", "plans": "[{\"link\": \"https://www.ratp.fr/sites/default/files/lines-assets/plan-de-ligne/metro/plan-de-ligne_metro_ligne-4.pdf\", \"label\": \"Plan M\u00e9tro 4\"}]", "schedules": "[{\"routeId\": \"route:IDFM:RATP:107752-C01374-ITI_IDFM_C01374_A_-401577644\", \"from\": \"Porte de Clignancourt\", \"to\": \"Bagneux - Lucie Aubrac\", \"first\": \"05:30\", \"last\": \"00:40\"}, {\"routeId\": \"route:IDFM:RATP:122980-C01374-ITI_IDFM_C01374_R_2029615734\", \"from\": \"Bagneux - Lucie Aubrac\", \"to\": \"Porte de Clignancourt\", \"first\": \"05:30\", \"last\": \"00:40\"}]", "stop_id": "IDFM:22152", "stop_name": "Ch\u00e2teau Rouge", "stop_lon": "2.3495819680256593", "stop_lat": "48.887241930648955", "operatorname": "RATP", "pointgeo": {"lon": 2.3495819680256593, "lat": 48.887241930648955}, "nom_commune": "Paris", "code_insee": "75056"}]